t,field.header.seq,field.header.stamp,field.header.frame_id,field.status.status,field.status.service,Y,X,field.altitude,field.position_covariance0,field.position_covariance1,field.position_covariance2,field.position_covariance3,field.position_covariance4,field.position_covariance5,field.position_covariance6,field.position_covariance7,field.position_covariance8,field.position_covariance_type,trajectory_id
854154000000,12808,854133000000,wamv1/gps_wamv_link,0,0,-33.7242229001,150.673585812,-0.141836876175,0,0,0,0,0,0,0,0,0,2,1
854200000000,12809,854200000000,wamv1/gps_wamv_link,0,0,-33.7242229033,150.673585785,-0.123569089973,0,0,0,0,0,0,0,0,0,2,1
854267000000,12810,854267000000,wamv1/gps_wamv_link,0,0,-33.7242229077,150.673585773,-0.12275245308,0,0,0,0,0,0,0,0,0,2,1
854333000000,12811,854333000000,wamv1/gps_wamv_link,0,0,-33.7242229137,150.673585772,-0.138370620405,0,0,0,0,0,0,0,0,0,2,1
854400000000,12812,854400000000,wamv1/gps_wamv_link,0,0,-33.7242229233,150.673585773,-0.162935083157,0,0,0,0,0,0,0,0,0,2,1
854467000000,12813,854467000000,wamv1/gps_wamv_link,0,0,-33.7242229389,150.673585763,-0.184119102973,0,0,0,0,0,0,0,0,0,2,1
854533000000,12814,854533000000,wamv1/gps_wamv_link,0,0,-33.7242229615,150.673585732,-0.191755410556,0,0,0,0,0,0,0,0,0,2,1
854600000000,12815,854600000000,wamv1/gps_wamv_link,0,0,-33.7242229912,150.673585675,-0.183489061821,0,0,0,0,0,0,0,0,0,2,1
854667000000,12816,854667000000,wamv1/gps_wamv_link,0,0,-33.7242230254,150.673585601,-0.164895571884,0,0,0,0,0,0,0,0,0,2,1
854733000000,12817,854733000000,wamv1/gps_wamv_link,0,0,-33.7242230623,150.673585523,-0.146356517368,0,0,0,0,0,0,0,0,0,2,1
854800000000,12818,854800000000,wamv1/gps_wamv_link,0,0,-33.7242231031,150.67358545,-0.135717912079,0,0,0,0,0,0,0,0,0,2,1
854867000000,12819,854867000000,wamv1/gps_wamv_link,0,0,-33.7242231493,150.673585392,-0.136434874132,0,0,0,0,0,0,0,0,0,2,1
854933000000,12820,854933000000,wamv1/gps_wamv_link,0,0,-33.7242232021,150.673585352,-0.145831783848,0,0,0,0,0,0,0,0,0,2,1
855000000000,12821,855000000000,wamv1/gps_wamv_link,0,0,-33.7242232642,150.673585325,-0.157893163898,0,0,0,0,0,0,0,0,0,2,1
855067000000,12822,855067000000,wamv1/gps_wamv_link,0,0,-33.724223334,150.673585302,-0.165084684384,0,0,0,0,0,0,0,0,0,2,1
855133000000,12823,855133000000,wamv1/gps_wamv_link,0,0,-33.7242234076,150.673585273,-0.162603652943,0,0,0,0,0,0,0,0,0,2,1
855200000000,12824,855200000000,wamv1/gps_wamv_link,0,0,-33.7242234853,150.673585227,-0.150523641864,0,0,0,0,0,0,0,0,0,2,1
855267000000,12825,855267000000,wamv1/gps_wamv_link,0,0,-33.7242235664,150.673585162,-0.133742435748,0,0,0,0,0,0,0,0,0,2,1
855333000000,12826,855333000000,wamv1/gps_wamv_link,0,0,-33.724223652,150.673585084,-0.119276290979,0,0,0,0,0,0,0,0,0,2,1
855400000000,12827,855400000000,wamv1/gps_wamv_link,0,0,-33.7242237474,150.673584999,-0.111751136934,0,0,0,0,0,0,0,0,0,2,1
855467000000,12828,855467000000,wamv1/gps_wamv_link,0,0,-33.7242238521,150.673584917,-0.112540549988,0,0,0,0,0,0,0,0,0,2,1
855533000000,12829,855533000000,wamv1/gps_wamv_link,0,0,-33.7242239629,150.673584847,-0.118573990288,0,0,0,0,0,0,0,0,0,2,1
855600000000,12830,855600000000,wamv1/gps_wamv_link,0,0,-33.7242240798,150.673584789,-0.124883446912,0,0,0,0,0,0,0,0,0,2,1
855667000000,12831,855667000000,wamv1/gps_wamv_link,0,0,-33.7242241988,150.673584745,-0.126563203178,0,0,0,0,0,0,0,0,0,2,1
855733000000,12832,855733000000,wamv1/gps_wamv_link,0,0,-33.7242243181,150.673584707,-0.12154031796,0,0,0,0,0,0,0,0,0,2,1
855800000000,12833,855800000000,wamv1/gps_wamv_link,0,0,-33.7242244444,150.673584666,-0.11093565997,0,0,0,0,0,0,0,0,0,2,1
855867000000,12834,855867000000,wamv1/gps_wamv_link,0,0,-33.7242245794,150.673584614,-0.0986287452271,0,0,0,0,0,0,0,0,0,2,1
855933000000,12835,855933000000,wamv1/gps_wamv_link,0,0,-33.7242247224,150.673584549,-0.0891009689655,0,0,0,0,0,0,0,0,0,2,1
856000000000,12836,856000000000,wamv1/gps_wamv_link,0,0,-33.7242248765,150.673584469,-0.0849286858973,0,0,0,0,0,0,0,0,0,2,1
856067000000,12837,856067000000,wamv1/gps_wamv_link,0,0,-33.7242250367,150.673584377,-0.086604531897,0,0,0,0,0,0,0,0,0,2,1
856133000000,12838,856133000000,wamv1/gps_wamv_link,0,0,-33.7242251977,150.673584283,-0.0917764210372,0,0,0,0,0,0,0,0,0,2,1
856200000000,12839,856200000000,wamv1/gps_wamv_link,0,0,-33.7242253638,150.673584189,-0.0969367001326,0,0,0,0,0,0,0,0,0,2,1
856267000000,12840,856267000000,wamv1/gps_wamv_link,0,0,-33.7242255342,150.673584106,-0.0986766212603,0,0,0,0,0,0,0,0,0,2,1
856333000000,12841,856333000000,wamv1/gps_wamv_link,0,0,-33.7242257088,150.673584035,-0.0956833681175,0,0,0,0,0,0,0,0,0,2,1
856400000000,12842,856400000000,wamv1/gps_wamv_link,0,0,-33.7242258939,150.673583973,-0.0889105961358,0,0,0,0,0,0,0,0,0,2,1
856467000000,12843,856467000000,wamv1/gps_wamv_link,0,0,-33.7242260859,150.673583916,-0.0810955434166,0,0,0,0,0,0,0,0,0,2,1
856533000000,12844,856533000000,wamv1/gps_wamv_link,0,0,-33.7242262797,150.673583856,-0.0751889078817,0,0,0,0,0,0,0,0,0,2,1
856600000000,12845,856600000000,wamv1/gps_wamv_link,0,0,-33.7242264797,150.673583786,-0.0726947585325,0,0,0,0,0,0,0,0,0,2,1
856667000000,12846,856667000000,wamv1/gps_wamv_link,0,0,-33.7242266836,150.673583701,-0.0737299672436,0,0,0,0,0,0,0,0,0,2,1
856733000000,12847,856733000000,wamv1/gps_wamv_link,0,0,-33.7242268903,150.673583606,-0.0768457006125,0,0,0,0,0,0,0,0,0,2,1
856800000000,12848,856800000000,wamv1/gps_wamv_link,0,0,-33.7242271081,150.673583502,-0.0801284184169,0,0,0,0,0,0,0,0,0,2,1
856867000000,12849,856867000000,wamv1/gps_wamv_link,0,0,-33.7242273334,150.6735834,-0.0817558641411,0,0,0,0,0,0,0,0,0,2,1
856933000000,12850,856933000000,wamv1/gps_wamv_link,0,0,-33.7242275598,150.673583307,-0.0809502593183,0,0,0,0,0,0,0,0,0,2,1
857000000000,12851,857000000000,wamv1/gps_wamv_link,0,0,-33.72422779,150.673583227,-0.0781260980523,0,0,0,0,0,0,0,0,0,2,1
857067000000,12852,857067000000,wamv1/gps_wamv_link,0,0,-33.7242280167,150.673583159,-0.074683468297,0,0,0,0,0,0,0,0,0,2,1
857133000000,12853,857133000000,wamv1/gps_wamv_link,0,0,-33.7242282361,150.673583101,-0.0722899889135,0,0,0,0,0,0,0,0,0,2,1
857200000000,12854,857200000000,wamv1/gps_wamv_link,0,0,-33.724228457,150.673583046,-0.0719273009225,0,0,0,0,0,0,0,0,0,2,1
857267000000,12855,857267000000,wamv1/gps_wamv_link,0,0,-33.7242286792,150.673582985,-0.0736767896763,0,0,0,0,0,0,0,0,0,2,1
857333000000,12856,857333000000,wamv1/gps_wamv_link,0,0,-33.7242289016,150.673582914,-0.0766669871559,0,0,0,0,0,0,0,0,0,2,1
857400000000,12857,857400000000,wamv1/gps_wamv_link,0,0,-33.7242291303,150.673582828,-0.079967085929,0,0,0,0,0,0,0,0,0,2,1
857467000000,12858,857467000000,wamv1/gps_wamv_link,0,0,-33.7242293592,150.67358273,-0.0828837329659,0,0,0,0,0,0,0,0,0,2,1
857533000000,12859,857533000000,wamv1/gps_wamv_link,0,0,-33.7242295818,150.673582628,-0.0853032104163,0,0,0,0,0,0,0,0,0,2,1
857600000000,12860,857600000000,wamv1/gps_wamv_link,0,0,-33.7242298027,150.673582525,-0.0876109368079,0,0,0,0,0,0,0,0,0,2,1
857667000000,12861,857667000000,wamv1/gps_wamv_link,0,0,-33.7242300187,150.673582431,-0.090188979589,0,0,0,0,0,0,0,0,0,2,1
857733000000,12862,857733000000,wamv1/gps_wamv_link,0,0,-33.7242302276,150.67358235,-0.0933086871339,0,0,0,0,0,0,0,0,0,2,1
857800000000,12863,857800000000,wamv1/gps_wamv_link,0,0,-33.7242304368,150.673582278,-0.0971785197921,0,0,0,0,0,0,0,0,0,2,1
857867000000,12864,857867000000,wamv1/gps_wamv_link,0,0,-33.724230643,150.67358221,-0.101587788797,0,0,0,0,0,0,0,0,0,2,1
857933000000,12865,857933000000,wamv1/gps_wamv_link,0,0,-33.7242308426,150.673582138,-0.106048614507,0,0,0,0,0,0,0,0,0,2,1
858000000000,12866,858000000000,wamv1/gps_wamv_link,0,0,-33.7242310419,150.673582053,-0.110266072201,0,0,0,0,0,0,0,0,0,2,1
858067000000,12867,858067000000,wamv1/gps_wamv_link,0,0,-33.7242312386,150.67358195,-0.114052526712,0,0,0,0,0,0,0,0,0,2,1
858133000000,12868,858133000000,wamv1/gps_wamv_link,0,0,-33.7242314313,150.673581833,-0.117676091448,0,0,0,0,0,0,0,0,0,2,1
858200000000,12869,858200000000,wamv1/gps_wamv_link,0,0,-33.7242316263,150.673581705,-0.121765314427,0,0,0,0,0,0,0,0,0,2,1
858267000000,12870,858267000000,wamv1/gps_wamv_link,0,0,-33.7242318192,150.673581573,-0.126551422162,0,0,0,0,0,0,0,0,0,2,1
858333000000,12871,858333000000,wamv1/gps_wamv_link,0,0,-33.7242320038,150.673581448,-0.131727493388,0,0,0,0,0,0,0,0,0,2,1
858400000000,12872,858400000000,wamv1/gps_wamv_link,0,0,-33.7242321822,150.67358133,-0.136830665207,0,0,0,0,0,0,0,0,0,2,1
858467000000,12873,858467000000,wamv1/gps_wamv_link,0,0,-33.7242323493,150.673581222,-0.141118689168,0,0,0,0,0,0,0,0,0,2,1
858533000000,12874,858533000000,wamv1/gps_wamv_link,0,0,-33.7242325037,150.67358112,-0.144165225624,0,0,0,0,0,0,0,0,0,2,1
858600000000,12875,858600000000,wamv1/gps_wamv_link,0,0,-33.7242326534,150.673581016,-0.146054062764,0,0,0,0,0,0,0,0,0,2,1
858667000000,12876,858667000000,wamv1/gps_wamv_link,0,0,-33.7242327997,150.673580907,-0.14705283665,0,0,0,0,0,0,0,0,0,2,1
858733000000,12877,858733000000,wamv1/gps_wamv_link,0,0,-33.7242329427,150.673580787,-0.147704500414,0,0,0,0,0,0,0,0,0,2,1
858800000000,12878,858800000000,wamv1/gps_wamv_link,0,0,-33.7242330861,150.673580651,-0.148653652612,0,0,0,0,0,0,0,0,0,2,1
858867000000,12879,858867000000,wamv1/gps_wamv_link,0,0,-33.7242332252,150.673580504,-0.150361383332,0,0,0,0,0,0,0,0,0,2,1
858933000000,12880,858933000000,wamv1/gps_wamv_link,0,0,-33.7242333605,150.673580354,-0.152819807724,0,0,0,0,0,0,0,0,0,2,1
859000000000,12881,859000000000,wamv1/gps_wamv_link,0,0,-33.7242334995,150.673580207,-0.155612711073,0,0,0,0,0,0,0,0,0,2,1
859067000000,12882,859067000000,wamv1/gps_wamv_link,0,0,-33.7242336391,150.673580071,-0.157909363444,0,0,0,0,0,0,0,0,0,2,1
859133000000,12883,859133000000,wamv1/gps_wamv_link,0,0,-33.7242337773,150.67357995,-0.159035831717,0,0,0,0,0,0,0,0,0,2,1
859200000000,12884,859200000000,wamv1/gps_wamv_link,0,0,-33.7242339192,150.67357984,-0.158836822511,0,0,0,0,0,0,0,0,0,2,1
859267000000,12885,859267000000,wamv1/gps_wamv_link,0,0,-33.7242340637,150.673579739,-0.157604939436,0,0,0,0,0,0,0,0,0,2,1
859333000000,12886,859333000000,wamv1/gps_wamv_link,0,0,-33.7242342098,150.673579639,-0.155968263352,0,0,0,0,0,0,0,0,0,2,1
859400000000,12887,859400000000,wamv1/gps_wamv_link,0,0,-33.724234363,150.67357953,-0.15447509228,0,0,0,0,0,0,0,0,0,2,1
859467000000,12888,859467000000,wamv1/gps_wamv_link,0,0,-33.7242345221,150.67357941,-0.153589837363,0,0,0,0,0,0,0,0,0,2,1
859533000000,12889,859533000000,wamv1/gps_wamv_link,0,0,-33.7242346856,150.673579281,-0.153512390278,0,0,0,0,0,0,0,0,0,2,1
859600000000,12890,859600000000,wamv1/gps_wamv_link,0,0,-33.7242348581,150.673579143,-0.154144088742,0,0,0,0,0,0,0,0,0,2,1
859667000000,12891,859667000000,wamv1/gps_wamv_link,0,0,-33.7242350358,150.673579005,-0.155051952039,0,0,0,0,0,0,0,0,0,2,1
859733000000,12892,859733000000,wamv1/gps_wamv_link,0,0,-33.7242352137,150.673578874,-0.155564429607,0,0,0,0,0,0,0,0,0,2,1
859800000000,12893,859800000000,wamv1/gps_wamv_link,0,0,-33.7242353946,150.673578753,-0.155099867185,0,0,0,0,0,0,0,0,0,2,1
859867000000,12894,859867000000,wamv1/gps_wamv_link,0,0,-33.7242355748,150.673578642,-0.153402545588,0,0,0,0,0,0,0,0,0,2,1
859933000000,12895,859933000000,wamv1/gps_wamv_link,0,0,-33.7242357522,150.673578541,-0.150720508718,0,0,0,0,0,0,0,0,0,2,1
860000000000,12896,860000000000,wamv1/gps_wamv_link,0,0,-33.7242359346,150.67357844,-0.147435436474,0,0,0,0,0,0,0,0,0,2,1
860067000000,12897,860067000000,wamv1/gps_wamv_link,0,0,-33.7242361222,150.673578336,-0.144051569066,0,0,0,0,0,0,0,0,0,2,1
860133000000,12898,860133000000,wamv1/gps_wamv_link,0,0,-33.7242363143,150.673578225,-0.140928209265,0,0,0,0,0,0,0,0,0,2,1
860200000000,12899,860200000000,wamv1/gps_wamv_link,0,0,-33.7242365167,150.673578102,-0.138116750287,0,0,0,0,0,0,0,0,0,2,1
860267000000,12900,860267000000,wamv1/gps_wamv_link,0,0,-33.7242367252,150.67357797,-0.135663126291,0,0,0,0,0,0,0,0,0,2,1
860333000000,12901,860333000000,wamv1/gps_wamv_link,0,0,-33.7242369339,150.673577837,-0.133410207073,0,0,0,0,0,0,0,0,0,2,1
860400000000,12902,860400000000,wamv1/gps_wamv_link,0,0,-33.724237147,150.673577704,-0.130908966158,0,0,0,0,0,0,0,0,0,2,1
860467000000,12903,860467000000,wamv1/gps_wamv_link,0,0,-33.72423736,150.673577581,-0.127748951106,0,0,0,0,0,0,0,0,0,2,1
860533000000,12904,860533000000,wamv1/gps_wamv_link,0,0,-33.7242375689,150.673577475,-0.123737975326,0,0,0,0,0,0,0,0,0,2,1
860600000000,12905,860600000000,wamv1/gps_wamv_link,0,0,-33.72423778,150.673577381,-0.11882824046,0,0,0,0,0,0,0,0,0,2,1
860667000000,12906,860667000000,wamv1/gps_wamv_link,0,0,-33.7242379909,150.673577298,-0.113425612435,0,0,0,0,0,0,0,0,0,2,1
860733000000,12907,860733000000,wamv1/gps_wamv_link,0,0,-33.7242382002,150.673577219,-0.108044471531,0,0,0,0,0,0,0,0,0,2,1
860800000000,12908,860800000000,wamv1/gps_wamv_link,0,0,-33.7242384159,150.673577133,-0.102875558257,0,0,0,0,0,0,0,0,0,2,1
860867000000,12909,860867000000,wamv1/gps_wamv_link,0,0,-33.7242386365,150.673577039,-0.0982559563122,0,0,0,0,0,0,0,0,0,2,1
860933000000,12910,860933000000,wamv1/gps_wamv_link,0,0,-33.7242388595,150.673576937,-0.0944108021829,0,0,0,0,0,0,0,0,0,2,1
861000000000,12911,861000000000,wamv1/gps_wamv_link,0,0,-33.7242390913,150.673576829,-0.0912801279793,0,0,0,0,0,0,0,0,0,2,1
861067000000,12912,861067000000,wamv1/gps_wamv_link,0,0,-33.7242393265,150.673576722,-0.0887845507116,0,0,0,0,0,0,0,0,0,2,1
861133000000,12913,861133000000,wamv1/gps_wamv_link,0,0,-33.7242395589,150.673576623,-0.0866149007658,0,0,0,0,0,0,0,0,0,2,1
861200000000,12914,861200000000,wamv1/gps_wamv_link,0,0,-33.7242397929,150.673576534,-0.0843381730152,0,0,0,0,0,0,0,0,0,2,1
861267000000,12915,861267000000,wamv1/gps_wamv_link,0,0,-33.7242400239,150.673576455,-0.0818075000685,0,0,0,0,0,0,0,0,0,2,1
861333000000,12916,861333000000,wamv1/gps_wamv_link,0,0,-33.7242402494,150.673576386,-0.0791643711235,0,0,0,0,0,0,0,0,0,2,1
861400000000,12917,861400000000,wamv1/gps_wamv_link,0,0,-33.724240479,150.67357632,-0.0766102909709,0,0,0,0,0,0,0,0,0,2,1
861467000000,12918,861467000000,wamv1/gps_wamv_link,0,0,-33.7242407121,150.673576251,-0.0744902616973,0,0,0,0,0,0,0,0,0,2,1
861533000000,12919,861533000000,wamv1/gps_wamv_link,0,0,-33.7242409477,150.673576177,-0.0730556949633,0,0,0,0,0,0,0,0,0,2,1
861600000000,12920,861600000000,wamv1/gps_wamv_link,0,0,-33.7242411936,150.67357609,-0.0724425930209,0,0,0,0,0,0,0,0,0,2,1
861667000000,12921,861667000000,wamv1/gps_wamv_link,0,0,-33.7242414451,150.673575995,-0.0727910028926,0,0,0,0,0,0,0,0,0,2,1
861733000000,12922,861733000000,wamv1/gps_wamv_link,0,0,-33.7242416959,150.673575896,-0.0740130178707,0,0,0,0,0,0,0,0,0,2,1
861800000000,12923,861800000000,wamv1/gps_wamv_link,0,0,-33.724241951,150.673575797,-0.0758232282509,0,0,0,0,0,0,0,0,0,2,1
861867000000,12924,861867000000,wamv1/gps_wamv_link,0,0,-33.7242422046,150.673575706,-0.0777014440783,0,0,0,0,0,0,0,0,0,2,1
861933000000,12925,861933000000,wamv1/gps_wamv_link,0,0,-33.7242424519,150.673575629,-0.0791720837105,0,0,0,0,0,0,0,0,0,2,1
862000000000,12926,862000000000,wamv1/gps_wamv_link,0,0,-33.7242427006,150.673575562,-0.0800968987942,0,0,0,0,0,0,0,0,0,2,1
862067000000,12927,862067000000,wamv1/gps_wamv_link,0,0,-33.7242429479,150.673575502,-0.0805793275837,0,0,0,0,0,0,0,0,0,2,1
862133000000,12928,862133000000,wamv1/gps_wamv_link,0,0,-33.7242431916,150.673575445,-0.0809318812807,0,0,0,0,0,0,0,0,0,2,1
862200000000,12929,862200000000,wamv1/gps_wamv_link,0,0,-33.7242434412,150.673575383,-0.0815122353439,0,0,0,0,0,0,0,0,0,2,1
862267000000,12930,862267000000,wamv1/gps_wamv_link,0,0,-33.7242436956,150.673575312,-0.0826156155972,0,0,0,0,0,0,0,0,0,2,1
862333000000,12931,862333000000,wamv1/gps_wamv_link,0,0,-33.7242439517,150.673575233,-0.0844207440157,0,0,0,0,0,0,0,0,0,2,1
862400000000,12932,862400000000,wamv1/gps_wamv_link,0,0,-33.7242442166,150.673575149,-0.0870246673771,0,0,0,0,0,0,0,0,0,2,1
862467000000,12933,862467000000,wamv1/gps_wamv_link,0,0,-33.7242444838,150.673575066,-0.0901894016713,0,0,0,0,0,0,0,0,0,2,1
862533000000,12934,862533000000,wamv1/gps_wamv_link,0,0,-33.7242447455,150.673574991,-0.0934216168334,0,0,0,0,0,0,0,0,0,2,1
862600000000,12935,862600000000,wamv1/gps_wamv_link,0,0,-33.7242450064,150.673574927,-0.0963504266865,0,0,0,0,0,0,0,0,0,2,1
862667000000,12936,862667000000,wamv1/gps_wamv_link,0,0,-33.7242452613,150.673574874,-0.0986764251413,0,0,0,0,0,0,0,0,0,2,1
862733000000,12937,862733000000,wamv1/gps_wamv_link,0,0,-33.7242455077,150.673574832,-0.100471704491,0,0,0,0,0,0,0,0,0,2,1
862800000000,12938,862800000000,wamv1/gps_wamv_link,0,0,-33.7242457562,150.673574795,-0.102132217468,0,0,0,0,0,0,0,0,0,2,1
862867000000,12939,862867000000,wamv1/gps_wamv_link,0,0,-33.7242460066,150.673574758,-0.104024245892,0,0,0,0,0,0,0,0,0,2,1
862933000000,12940,862933000000,wamv1/gps_wamv_link,0,0,-33.724246258,150.673574717,-0.10641542694,0,0,0,0,0,0,0,0,0,2,1
863000000000,12941,863000000000,wamv1/gps_wamv_link,0,0,-33.724246519,150.673574667,-0.109571410887,0,0,0,0,0,0,0,0,0,2,1
863067000000,12942,863067000000,wamv1/gps_wamv_link,0,0,-33.7242467847,150.673574609,-0.113533821152,0,0,0,0,0,0,0,0,0,2,1
863133000000,12943,863133000000,wamv1/gps_wamv_link,0,0,-33.7242470485,150.673574547,-0.11811628619,0,0,0,0,0,0,0,0,0,2,1
863200000000,12944,863200000000,wamv1/gps_wamv_link,0,0,-33.7242473158,150.673574485,-0.123120111363,0,0,0,0,0,0,0,0,0,2,1
863267000000,12945,863267000000,wamv1/gps_wamv_link,0,0,-33.7242475802,150.673574431,-0.128000311782,0,0,0,0,0,0,0,0,0,2,1
863333000000,12946,863333000000,wamv1/gps_wamv_link,0,0,-33.7242478368,150.673574389,-0.132286086865,0,0,0,0,0,0,0,0,0,2,1
863400000000,12947,863400000000,wamv1/gps_wamv_link,0,0,-33.7242480935,150.673574356,-0.135954765789,0,0,0,0,0,0,0,0,0,2,1
863467000000,12948,863467000000,wamv1/gps_wamv_link,0,0,-33.7242483476,150.673574329,-0.139057468456,0,0,0,0,0,0,0,0,0,2,1
863533000000,12949,863533000000,wamv1/gps_wamv_link,0,0,-33.7242485974,150.673574303,-0.141818706905,0,0,0,0,0,0,0,0,0,2,1
863600000000,12950,863600000000,wamv1/gps_wamv_link,0,0,-33.724248853,150.673574271,-0.144584138897,0,0,0,0,0,0,0,0,0,2,1
863667000000,12951,863667000000,wamv1/gps_wamv_link,0,0,-33.7242491129,150.673574231,-0.147513445474,0,0,0,0,0,0,0,0,0,2,1
863733000000,12952,863733000000,wamv1/gps_wamv_link,0,0,-33.7242493748,150.673574183,-0.150678559403,0,0,0,0,0,0,0,0,0,2,1
863800000000,12953,863800000000,wamv1/gps_wamv_link,0,0,-33.7242496461,150.673574128,-0.154162196019,0,0,0,0,0,0,0,0,0,2,1
863867000000,12954,863867000000,wamv1/gps_wamv_link,0,0,-33.7242499201,150.673574073,-0.157687252223,0,0,0,0,0,0,0,0,0,2,1
863933000000,12955,863933000000,wamv1/gps_wamv_link,0,0,-33.7242501888,150.673574023,-0.160768161796,0,0,0,0,0,0,0,0,0,2,1
864000000000,12956,864000000000,wamv1/gps_wamv_link,0,0,-33.7242504569,150.673573979,-0.163018410497,0,0,0,0,0,0,0,0,0,2,1
864067000000,12957,864067000000,wamv1/gps_wamv_link,0,0,-33.7242507181,150.673573945,-0.164100724387,0,0,0,0,0,0,0,0,0,2,1
864133000000,12958,864133000000,wamv1/gps_wamv_link,0,0,-33.7242509696,150.673573919,-0.16405703164,0,0,0,0,0,0,0,0,0,2,1
864200000000,12959,864200000000,wamv1/gps_wamv_link,0,0,-33.7242512222,150.673573898,-0.163173355523,0,0,0,0,0,0,0,0,0,2,1
864267000000,12960,864267000000,wamv1/gps_wamv_link,0,0,-33.724251476,150.673573878,-0.161820189659,0,0,0,0,0,0,0,0,0,2,1
864333000000,12961,864333000000,wamv1/gps_wamv_link,0,0,-33.7242517299,150.673573855,-0.160351461519,0,0,0,0,0,0,0,0,0,2,1
864400000000,12962,864400000000,wamv1/gps_wamv_link,0,0,-33.7242519925,150.673573826,-0.158961662363,0,0,0,0,0,0,0,0,0,2,1
864467000000,12963,864467000000,wamv1/gps_wamv_link,0,0,-33.7242522586,150.673573792,-0.157802361792,0,0,0,0,0,0,0,0,0,2,1
864533000000,12964,864533000000,wamv1/gps_wamv_link,0,0,-33.7242525215,150.673573757,-0.156847173363,0,0,0,0,0,0,0,0,0,2,1
864600000000,12965,864600000000,wamv1/gps_wamv_link,0,0,-33.7242527861,150.673573723,-0.155824898748,0,0,0,0,0,0,0,0,0,2,1
864667000000,12966,864667000000,wamv1/gps_wamv_link,0,0,-33.7242530461,150.673573697,-0.154383243667,0,0,0,0,0,0,0,0,0,2,1
864733000000,12967,864733000000,wamv1/gps_wamv_link,0,0,-33.7242532968,150.673573682,-0.15226540629,0,0,0,0,0,0,0,0,0,2,1
864800000000,12968,864800000000,wamv1/gps_wamv_link,0,0,-33.724253546,150.673573677,-0.149357344594,0,0,0,0,0,0,0,0,0,2,1
864867000000,12969,864867000000,wamv1/gps_wamv_link,0,0,-33.7242537913,150.673573679,-0.145895812873,0,0,0,0,0,0,0,0,0,2,1
864933000000,12970,864933000000,wamv1/gps_wamv_link,0,0,-33.7242540315,150.673573683,-0.142277757199,0,0,0,0,0,0,0,0,0,2,1
865000000000,12971,865000000000,wamv1/gps_wamv_link,0,0,-33.7242542769,150.673573683,-0.13871468917,0,0,0,0,0,0,0,0,0,2,1
865067000000,12972,865067000000,wamv1/gps_wamv_link,0,0,-33.724254527,150.673573675,-0.135504869799,0,0,0,0,0,0,0,0,0,2,1
865133000000,12973,865133000000,wamv1/gps_wamv_link,0,0,-33.7242547787,150.673573659,-0.132848954122,0,0,0,0,0,0,0,0,0,2,1
865200000000,12974,865200000000,wamv1/gps_wamv_link,0,0,-33.7242550383,150.673573639,-0.130708658745,0,0,0,0,0,0,0,0,0,2,1
865267000000,12975,865267000000,wamv1/gps_wamv_link,0,0,-33.7242552995,150.673573619,-0.128974046633,0,0,0,0,0,0,0,0,0,2,1
865333000000,12976,865333000000,wamv1/gps_wamv_link,0,0,-33.7242555553,150.673573602,-0.127314473706,0,0,0,0,0,0,0,0,0,2,1
865400000000,12977,865400000000,wamv1/gps_wamv_link,0,0,-33.7242558109,150.673573591,-0.125264198419,0,0,0,0,0,0,0,0,0,2,1
865467000000,12978,865467000000,wamv1/gps_wamv_link,0,0,-33.7242560609,150.673573586,-0.122572204491,0,0,0,0,0,0,0,0,0,2,1
865533000000,12979,865533000000,wamv1/gps_wamv_link,0,0,-33.7242563021,150.673573586,-0.119285915191,0,0,0,0,0,0,0,0,0,2,1
865600000000,12980,865600000000,wamv1/gps_wamv_link,0,0,-33.7242565443,150.673573589,-0.115520723483,0,0,0,0,0,0,0,0,0,2,1
865667000000,12981,865667000000,wamv1/gps_wamv_link,0,0,-33.7242567875,150.673573592,-0.111624930007,0,0,0,0,0,0,0,0,0,2,1
865733000000,12982,865733000000,wamv1/gps_wamv_link,0,0,-33.7242570316,150.673573589,-0.107931669528,0,0,0,0,0,0,0,0,0,2,1
865800000000,12983,865800000000,wamv1/gps_wamv_link,0,0,-33.7242572854,150.67357358,-0.104544160329,0,0,0,0,0,0,0,0,0,2,1
865867000000,12984,865867000000,wamv1/gps_wamv_link,0,0,-33.7242575436,150.673573565,-0.101648940526,0,0,0,0,0,0,0,0,0,2,1
865933000000,12985,865933000000,wamv1/gps_wamv_link,0,0,-33.7242577996,150.673573547,-0.0992442437346,0,0,0,0,0,0,0,0,0,2,1
866000000000,12986,866000000000,wamv1/gps_wamv_link,0,0,-33.7242580578,150.673573531,-0.0970171732935,0,0,0,0,0,0,0,0,0,2,1
866067000000,12987,866067000000,wamv1/gps_wamv_link,0,0,-33.7242583113,150.67357352,-0.0946301286647,0,0,0,0,0,0,0,0,0,2,1
866133000000,12988,866133000000,wamv1/gps_wamv_link,0,0,-33.7242585553,150.673573518,-0.0918054167036,0,0,0,0,0,0,0,0,0,2,1
866200000000,12989,866200000000,wamv1/gps_wamv_link,0,0,-33.7242587976,150.673573524,-0.0883710634346,0,0,0,0,0,0,0,0,0,2,1
866267000000,12990,866267000000,wamv1/gps_wamv_link,0,0,-33.7242590361,150.673573534,-0.0845596543804,0,0,0,0,0,0,0,0,0,2,1
866333000000,12991,866333000000,wamv1/gps_wamv_link,0,0,-33.7242592698,150.673573546,-0.080787653566,0,0,0,0,0,0,0,0,0,2,1
866400000000,12992,866400000000,wamv1/gps_wamv_link,0,0,-33.7242595088,150.673573555,-0.0773106961683,0,0,0,0,0,0,0,0,0,2,1
866467000000,12993,866467000000,wamv1/gps_wamv_link,0,0,-33.7242597514,150.673573559,-0.0744857126499,0,0,0,0,0,0,0,0,0,2,1
866533000000,12994,866533000000,wamv1/gps_wamv_link,0,0,-33.7242599945,150.673573559,-0.0725235497502,0,0,0,0,0,0,0,0,0,2,1
866600000000,12995,866600000000,wamv1/gps_wamv_link,0,0,-33.7242602445,150.673573555,-0.0714182051195,0,0,0,0,0,0,0,0,0,2,1
866667000000,12996,866667000000,wamv1/gps_wamv_link,0,0,-33.7242604949,150.673573552,-0.071084387838,0,0,0,0,0,0,0,0,0,2,1
866733000000,12997,866733000000,wamv1/gps_wamv_link,0,0,-33.7242607387,150.673573552,-0.0712296999224,0,0,0,0,0,0,0,0,0,2,1
866800000000,12998,866800000000,wamv1/gps_wamv_link,0,0,-33.7242609806,150.673573558,-0.0715278886475,0,0,0,0,0,0,0,0,0,2,1
866867000000,12999,866867000000,wamv1/gps_wamv_link,0,0,-33.7242612157,150.673573571,-0.0717712124283,0,0,0,0,0,0,0,0,0,2,1
866933000000,13000,866933000000,wamv1/gps_wamv_link,0,0,-33.7242614418,150.673573591,-0.0719749564846,0,0,0,0,0,0,0,0,0,2,1
867000000000,13001,867000000000,wamv1/gps_wamv_link,0,0,-33.7242616685,150.673573614,-0.0723450686602,0,0,0,0,0,0,0,0,0,2,1
867067000000,13002,867067000000,wamv1/gps_wamv_link,0,0,-33.7242618956,150.673573637,-0.073136740843,0,0,0,0,0,0,0,0,0,2,1
867133000000,13003,867133000000,wamv1/gps_wamv_link,0,0,-33.7242621227,150.673573655,-0.0745368826073,0,0,0,0,0,0,0,0,0,2,1
867200000000,13004,867200000000,wamv1/gps_wamv_link,0,0,-33.7242623581,150.673573667,-0.0767266516434,0,0,0,0,0,0,0,0,0,2,1
867267000000,13005,867267000000,wamv1/gps_wamv_link,0,0,-33.7242625979,150.673573672,-0.0797461973527,0,0,0,0,0,0,0,0,0,2,1
867333000000,13006,867333000000,wamv1/gps_wamv_link,0,0,-33.7242628365,150.673573673,-0.0834561053695,0,0,0,0,0,0,0,0,0,2,1
867400000000,13007,867400000000,wamv1/gps_wamv_link,0,0,-33.7242630783,150.673573674,-0.0877090671352,0,0,0,0,0,0,0,0,0,2,1
867467000000,13008,867467000000,wamv1/gps_wamv_link,0,0,-33.7242633168,150.673573679,-0.0920484237888,0,0,0,0,0,0,0,0,0,2,1
867533000000,13009,867533000000,wamv1/gps_wamv_link,0,0,-33.7242635464,150.67357369,-0.0960234980927,0,0,0,0,0,0,0,0,0,2,1
867600000000,13010,867600000000,wamv1/gps_wamv_link,0,0,-33.7242637737,150.673573708,-0.0995428093409,0,0,0,0,0,0,0,0,0,2,1
867667000000,13011,867667000000,wamv1/gps_wamv_link,0,0,-33.7242639971,150.673573728,-0.102569479813,0,0,0,0,0,0,0,0,0,2,1
867733000000,13012,867733000000,wamv1/gps_wamv_link,0,0,-33.7242642155,150.673573748,-0.105273247336,0,0,0,0,0,0,0,0,0,2,1
867800000000,13013,867800000000,wamv1/gps_wamv_link,0,0,-33.7242644382,150.673573766,-0.107995869351,0,0,0,0,0,0,0,0,0,2,1
867867000000,13014,867867000000,wamv1/gps_wamv_link,0,0,-33.7242646648,150.673573779,-0.110919461061,0,0,0,0,0,0,0,0,0,2,1
867933000000,13015,867933000000,wamv1/gps_wamv_link,0,0,-33.7242648928,150.673573787,-0.114138848603,0,0,0,0,0,0,0,0,0,2,1
868000000000,13016,868000000000,wamv1/gps_wamv_link,0,0,-33.724265128,150.673573792,-0.117780098722,0,0,0,0,0,0,0,0,0,2,1
868067000000,13017,868067000000,wamv1/gps_wamv_link,0,0,-33.724265364,150.673573798,-0.121658558413,0,0,0,0,0,0,0,0,0,2,1
868133000000,13018,868133000000,wamv1/gps_wamv_link,0,0,-33.7242655935,150.673573805,-0.125416033852,0,0,0,0,0,0,0,0,0,2,1
868200000000,13019,868200000000,wamv1/gps_wamv_link,0,0,-33.7242658205,150.673573818,-0.128815636709,0,0,0,0,0,0,0,0,0,2,1
868267000000,13020,868267000000,wamv1/gps_wamv_link,0,0,-33.72426604,150.673573837,-0.131565633209,0,0,0,0,0,0,0,0,0,2,1
868333000000,13021,868333000000,wamv1/gps_wamv_link,0,0,-33.7242662501,150.673573861,-0.133640824914,0,0,0,0,0,0,0,0,0,2,1
868400000000,13022,868400000000,wamv1/gps_wamv_link,0,0,-33.7242664599,150.673573891,-0.135313847586,0,0,0,0,0,0,0,0,0,2,1
868467000000,13023,868467000000,wamv1/gps_wamv_link,0,0,-33.7242666694,150.673573921,-0.136849964915,0,0,0,0,0,0,0,0,0,2,1
868533000000,13024,868533000000,wamv1/gps_wamv_link,0,0,-33.7242668785,150.673573949,-0.138496135713,0,0,0,0,0,0,0,0,0,2,1
868600000000,13025,868600000000,wamv1/gps_wamv_link,0,0,-33.7242670949,150.673573973,-0.140494186501,0,0,0,0,0,0,0,0,0,2,1
868667000000,13026,868667000000,wamv1/gps_wamv_link,0,0,-33.7242673149,150.673573992,-0.142917830993,0,0,0,0,0,0,0,0,0,2,1
868733000000,13027,868733000000,wamv1/gps_wamv_link,0,0,-33.7242675335,150.673574006,-0.14568868839,0,0,0,0,0,0,0,0,0,2,1
868800000000,13028,868800000000,wamv1/gps_wamv_link,0,0,-33.7242677546,150.673574021,-0.148695659704,0,0,0,0,0,0,0,0,0,2,1
868867000000,13029,868867000000,wamv1/gps_wamv_link,0,0,-33.7242679726,150.673574039,-0.151575785411,0,0,0,0,0,0,0,0,0,2,1
868933000000,13030,868933000000,wamv1/gps_wamv_link,0,0,-33.7242681823,150.673574063,-0.153977020602,0,0,0,0,0,0,0,0,0,2,1
869000000000,13031,869000000000,wamv1/gps_wamv_link,0,0,-33.7242683898,150.673574093,-0.155801928964,0,0,0,0,0,0,0,0,0,2,1
869067000000,13032,869067000000,wamv1/gps_wamv_link,0,0,-33.7242685928,150.673574127,-0.157039975123,0,0,0,0,0,0,0,0,0,2,1
869133000000,13033,869133000000,wamv1/gps_wamv_link,0,0,-33.7242687907,150.673574161,-0.15785456924,0,0,0,0,0,0,0,0,0,2,1
869200000000,13034,869200000000,wamv1/gps_wamv_link,0,0,-33.7242689926,150.673574191,-0.158481141356,0,0,0,0,0,0,0,0,0,2,1
869267000000,13035,869267000000,wamv1/gps_wamv_link,0,0,-33.7242691985,150.673574217,-0.159087363978,0,0,0,0,0,0,0,0,0,2,1
869333000000,13036,869333000000,wamv1/gps_wamv_link,0,0,-33.7242694065,150.673574236,-0.15978228087,0,0,0,0,0,0,0,0,0,2,1
869400000000,13037,869400000000,wamv1/gps_wamv_link,0,0,-33.7242696223,150.673574253,-0.16061016128,0,0,0,0,0,0,0,0,0,2,1
869467000000,13038,869467000000,wamv1/gps_wamv_link,0,0,-33.7242698401,150.673574267,-0.161435259782,0,0,0,0,0,0,0,0,0,2,1
869533000000,13039,869533000000,wamv1/gps_wamv_link,0,0,-33.724270053,150.673574283,-0.161964854868,0,0,0,0,0,0,0,0,0,2,1
869600000000,13040,869600000000,wamv1/gps_wamv_link,0,0,-33.7242702643,150.673574303,-0.161858094824,0,0,0,0,0,0,0,0,0,2,1
869667000000,13041,869667000000,wamv1/gps_wamv_link,0,0,-33.7242704691,150.673574326,-0.160830583286,0,0,0,0,0,0,0,0,0,2,1
869733000000,13042,869733000000,wamv1/gps_wamv_link,0,0,-33.7242706649,150.673574354,-0.158859370077,0,0,0,0,0,0,0,0,0,2,1
869800000000,13043,869800000000,wamv1/gps_wamv_link,0,0,-33.7242708602,150.673574385,-0.156040679095,0,0,0,0,0,0,0,0,0,2,1
869867000000,13044,869867000000,wamv1/gps_wamv_link,0,0,-33.7242710554,150.673574417,-0.152677378476,0,0,0,0,0,0,0,0,0,2,1
869933000000,13045,869933000000,wamv1/gps_wamv_link,0,0,-33.7242712503,150.673574447,-0.149117289484,0,0,0,0,0,0,0,0,0,2,1
870000000000,13046,870000000000,wamv1/gps_wamv_link,0,0,-33.7242714524,150.673574474,-0.145490221825,0,0,0,0,0,0,0,0,0,2,1
870067000000,13047,870067000000,wamv1/gps_wamv_link,0,0,-33.7242716584,150.673574496,-0.142001546037,0,0,0,0,0,0,0,0,0,2,1
870133000000,13048,870133000000,wamv1/gps_wamv_link,0,0,-33.7242718631,150.673574516,-0.138724711165,0,0,0,0,0,0,0,0,0,2,1
870200000000,13049,870200000000,wamv1/gps_wamv_link,0,0,-33.7242720701,150.673574536,-0.135432777685,0,0,0,0,0,0,0,0,0,2,1
870267000000,13050,870267000000,wamv1/gps_wamv_link,0,0,-33.7242722733,150.67357456,-0.131935396216,0,0,0,0,0,0,0,0,0,2,1
870333000000,13051,870333000000,wamv1/gps_wamv_link,0,0,-33.724272468,150.673574589,-0.128067240994,0,0,0,0,0,0,0,0,0,2,1
870400000000,13052,870400000000,wamv1/gps_wamv_link,0,0,-33.7242726598,150.673574625,-0.123635110867,0,0,0,0,0,0,0,0,0,2,1
870467000000,13053,870467000000,wamv1/gps_wamv_link,0,0,-33.7242728468,150.673574665,-0.118821303443,0,0,0,0,0,0,0,0,0,2,1
870533000000,13054,870533000000,wamv1/gps_wamv_link,0,0,-33.7242730288,150.673574707,-0.113971385653,0,0,0,0,0,0,0,0,0,2,1
870600000000,13055,870600000000,wamv1/gps_wamv_link,0,0,-33.7242732142,150.673574747,-0.109240709722,0,0,0,0,0,0,0,0,0,2,1
870667000000,13056,870667000000,wamv1/gps_wamv_link,0,0,-33.7242734029,150.673574784,-0.104960492267,0,0,0,0,0,0,0,0,0,2,1
870733000000,13057,870733000000,wamv1/gps_wamv_link,0,0,-33.7242735933,150.673574816,-0.1013560273,0,0,0,0,0,0,0,0,0,2,1
870800000000,13058,870800000000,wamv1/gps_wamv_link,0,0,-33.7242737906,150.673574845,-0.0983877214315,0,0,0,0,0,0,0,0,0,2,1
870867000000,13059,870867000000,wamv1/gps_wamv_link,0,0,-33.7242739896,150.673574873,-0.0960441635606,0,0,0,0,0,0,0,0,0,2,1
870933000000,13060,870933000000,wamv1/gps_wamv_link,0,0,-33.7242741843,150.6735749,-0.0941320303008,0,0,0,0,0,0,0,0,0,2,1
871000000000,13061,871000000000,wamv1/gps_wamv_link,0,0,-33.7242743778,150.673574932,-0.0922999725156,0,0,0,0,0,0,0,0,0,2,1
871067000000,13062,871067000000,wamv1/gps_wamv_link,0,0,-33.7242745659,150.673574967,-0.0903389340783,0,0,0,0,0,0,0,0,0,2,1
871133000000,13063,871133000000,wamv1/gps_wamv_link,0,0,-33.7242747462,150.673575005,-0.0882067218209,0,0,0,0,0,0,0,0,0,2,1
871200000000,13064,871200000000,wamv1/gps_wamv_link,0,0,-33.7242749263,150.673575046,-0.0859358380052,0,0,0,0,0,0,0,0,0,2,1
871267000000,13065,871267000000,wamv1/gps_wamv_link,0,0,-33.7242751064,150.673575086,-0.0837558118237,0,0,0,0,0,0,0,0,0,2,1
871333000000,13066,871333000000,wamv1/gps_wamv_link,0,0,-33.7242752866,150.673575122,-0.0819032013788,0,0,0,0,0,0,0,0,0,2,1
871400000000,13067,871400000000,wamv1/gps_wamv_link,0,0,-33.7242754739,150.673575155,-0.0804909273315,0,0,0,0,0,0,0,0,0,2,1
871467000000,13068,871467000000,wamv1/gps_wamv_link,0,0,-33.7242756659,150.673575182,-0.0796479360474,0,0,0,0,0,0,0,0,0,2,1
871533000000,13069,871533000000,wamv1/gps_wamv_link,0,0,-33.7242758579,150.673575206,-0.0793567537515,0,0,0,0,0,0,0,0,0,2,1
871600000000,13070,871600000000,wamv1/gps_wamv_link,0,0,-33.7242760531,150.673575229,-0.0794410514194,0,0,0,0,0,0,0,0,0,2,1
871667000000,13071,871667000000,wamv1/gps_wamv_link,0,0,-33.7242762455,150.673575255,-0.0796180340925,0,0,0,0,0,0,0,0,0,2,1
871733000000,13072,871733000000,wamv1/gps_wamv_link,0,0,-33.72427643,150.673575285,-0.0795937950444,0,0,0,0,0,0,0,0,0,2,1
871800000000,13073,871800000000,wamv1/gps_wamv_link,0,0,-33.7242766115,150.67357532,-0.0792072423395,0,0,0,0,0,0,0,0,0,2,1
871867000000,13074,871867000000,wamv1/gps_wamv_link,0,0,-33.7242767881,150.673575358,-0.0784989783927,0,0,0,0,0,0,0,0,0,2,1
871933000000,13075,871933000000,wamv1/gps_wamv_link,0,0,-33.7242769595,150.673575396,-0.0776906540652,0,0,0,0,0,0,0,0,0,2,1
872000000000,13076,872000000000,wamv1/gps_wamv_link,0,0,-33.7242771341,150.673575435,-0.0770298631863,0,0,0,0,0,0,0,0,0,2,1
872067000000,13077,872067000000,wamv1/gps_wamv_link,0,0,-33.724277312,150.673575471,-0.0767806951952,0,0,0,0,0,0,0,0,0,2,1
872133000000,13078,872133000000,wamv1/gps_wamv_link,0,0,-33.7242774914,150.673575504,-0.0771128816941,0,0,0,0,0,0,0,0,0,2,1
872200000000,13079,872200000000,wamv1/gps_wamv_link,0,0,-33.7242776771,150.673575534,-0.0781117376777,0,0,0,0,0,0,0,0,0,2,1
872267000000,13080,872267000000,wamv1/gps_wamv_link,0,0,-33.7242778639,150.673575564,-0.0797179894934,0,0,0,0,0,0,0,0,0,2,1
872333000000,13081,872333000000,wamv1/gps_wamv_link,0,0,-33.7242780461,150.673575593,-0.0817045604338,0,0,0,0,0,0,0,0,0,2,1
872400000000,13082,872400000000,wamv1/gps_wamv_link,0,0,-33.7242782266,150.673575627,-0.0838756285219,0,0,0,0,0,0,0,0,0,2,1
872467000000,13083,872467000000,wamv1/gps_wamv_link,0,0,-33.7242784012,150.673575664,-0.0860041821487,0,0,0,0,0,0,0,0,0,2,1
872533000000,13084,872533000000,wamv1/gps_wamv_link,0,0,-33.7242785682,150.673575705,-0.0880192655318,0,0,0,0,0,0,0,0,0,2,1
872600000000,13085,872600000000,wamv1/gps_wamv_link,0,0,-33.7242787346,150.67357575,-0.0901034544611,0,0,0,0,0,0,0,0,0,2,1
872667000000,13086,872667000000,wamv1/gps_wamv_link,0,0,-33.7242789005,150.673575796,-0.09243489862,0,0,0,0,0,0,0,0,0,2,1
872733000000,13087,872733000000,wamv1/gps_wamv_link,0,0,-33.7242790661,150.673575838,-0.0951708898263,0,0,0,0,0,0,0,0,0,2,1
872800000000,13088,872800000000,wamv1/gps_wamv_link,0,0,-33.7242792381,150.673575876,-0.0985358600334,0,0,0,0,0,0,0,0,0,2,1
872867000000,13089,872867000000,wamv1/gps_wamv_link,0,0,-33.7242794143,150.67357591,-0.102553771945,0,0,0,0,0,0,0,0,0,2,1
872933000000,13090,872933000000,wamv1/gps_wamv_link,0,0,-33.7242795908,150.673575939,-0.107104070166,0,0,0,0,0,0,0,0,0,2,1
873000000000,13091,873000000000,wamv1/gps_wamv_link,0,0,-33.7242797709,150.673575967,-0.112142019625,0,0,0,0,0,0,0,0,0,2,1
873067000000,13092,873067000000,wamv1/gps_wamv_link,0,0,-33.7242799491,150.673575997,-0.117299996304,0,0,0,0,0,0,0,0,0,2,1
873133000000,13093,873133000000,wamv1/gps_wamv_link,0,0,-33.7242801214,150.673576029,-0.12217693676,0,0,0,0,0,0,0,0,0,2,1
873200000000,13094,873200000000,wamv1/gps_wamv_link,0,0,-33.7242802925,150.673576063,-0.12669211772,0,0,0,0,0,0,0,0,0,2,1
873267000000,13095,873267000000,wamv1/gps_wamv_link,0,0,-33.7242804604,150.673576099,-0.130710450705,0,0,0,0,0,0,0,0,0,2,1
873333000000,13096,873333000000,wamv1/gps_wamv_link,0,0,-33.7242806246,150.673576133,-0.134272493117,0,0,0,0,0,0,0,0,0,2,1
873400000000,13097,873400000000,wamv1/gps_wamv_link,0,0,-33.724280793,150.673576164,-0.137648049668,0,0,0,0,0,0,0,0,0,2,1
873467000000,13098,873467000000,wamv1/gps_wamv_link,0,0,-33.7242809658,150.673576191,-0.140939517923,0,0,0,0,0,0,0,0,0,2,1
873533000000,13099,873533000000,wamv1/gps_wamv_link,0,0,-33.7242811411,150.673576214,-0.144205630422,0,0,0,0,0,0,0,0,0,2,1
873600000000,13100,873600000000,wamv1/gps_wamv_link,0,0,-33.7242813231,150.673576235,-0.147568198678,0,0,0,0,0,0,0,0,0,2,1
873667000000,13101,873667000000,wamv1/gps_wamv_link,0,0,-33.7242815071,150.673576254,-0.150881381626,0,0,0,0,0,0,0,0,0,2,1
873733000000,13102,873733000000,wamv1/gps_wamv_link,0,0,-33.7242816877,150.673576273,-0.153881191446,0,0,0,0,0,0,0,0,0,2,1
873800000000,13103,873800000000,wamv1/gps_wamv_link,0,0,-33.7242818679,150.673576293,-0.15638260547,0,0,0,0,0,0,0,0,0,2,1
873867000000,13104,873867000000,wamv1/gps_wamv_link,0,0,-33.7242820426,150.673576316,-0.15812265306,0,0,0,0,0,0,0,0,0,2,1
873933000000,13105,873933000000,wamv1/gps_wamv_link,0,0,-33.7242822098,150.673576342,-0.159028332502,0,0,0,0,0,0,0,0,0,2,1
874000000000,13106,874000000000,wamv1/gps_wamv_link,0,0,-33.7242823771,150.673576371,-0.159234918187,0,0,0,0,0,0,0,0,0,2,1
874067000000,13107,874067000000,wamv1/gps_wamv_link,0,0,-33.7242825444,150.673576401,-0.158947680177,0,0,0,0,0,0,0,0,0,2,1
874133000000,13108,874133000000,wamv1/gps_wamv_link,0,0,-33.7242827118,150.673576429,-0.158423246535,0,0,0,0,0,0,0,0,0,2,1
874200000000,13109,874200000000,wamv1/gps_wamv_link,0,0,-33.7242828858,150.673576454,-0.157850053035,0,0,0,0,0,0,0,0,0,2,1
874267000000,13110,874267000000,wamv1/gps_wamv_link,0,0,-33.7242830633,150.673576477,-0.157369480945,0,0,0,0,0,0,0,0,0,2,1
874333000000,13111,874333000000,wamv1/gps_wamv_link,0,0,-33.7242832402,150.673576496,-0.157016702094,0,0,0,0,0,0,0,0,0,2,1
874400000000,13112,874400000000,wamv1/gps_wamv_link,0,0,-33.7242834199,150.673576515,-0.156695047227,0,0,0,0,0,0,0,0,0,2,1
874467000000,13113,874467000000,wamv1/gps_wamv_link,0,0,-33.7242835973,150.673576537,-0.156228582392,0,0,0,0,0,0,0,0,0,2,1
874533000000,13114,874533000000,wamv1/gps_wamv_link,0,0,-33.724283768,150.673576562,-0.15543358186,0,0,0,0,0,0,0,0,0,2,1
874600000000,13115,874600000000,wamv1/gps_wamv_link,0,0,-33.7242839364,150.673576591,-0.154171439882,0,0,0,0,0,0,0,0,0,2,1
874667000000,13116,874667000000,wamv1/gps_wamv_link,0,0,-33.7242841005,150.673576623,-0.152474363273,0,0,0,0,0,0,0,0,0,2,1
874733000000,13117,874733000000,wamv1/gps_wamv_link,0,0,-33.7242842604,150.673576655,-0.150512660997,0,0,0,0,0,0,0,0,0,2,1
874800000000,13118,874800000000,wamv1/gps_wamv_link,0,0,-33.724284424,150.673576686,-0.148414485587,0,0,0,0,0,0,0,0,0,2,1
874867000000,13119,874867000000,wamv1/gps_wamv_link,0,0,-33.7242845904,150.673576713,-0.14638700738,0,0,0,0,0,0,0,0,0,2,1
874933000000,13120,874933000000,wamv1/gps_wamv_link,0,0,-33.7242847584,150.673576737,-0.144576469707,0,0,0,0,0,0,0,0,0,2,1
875000000000,13121,875000000000,wamv1/gps_wamv_link,0,0,-33.7242849328,150.673576758,-0.142967857506,0,0,0,0,0,0,0,0,0,2,1
875067000000,13122,875067000000,wamv1/gps_wamv_link,0,0,-33.7242851094,150.673576777,-0.141524825854,0,0,0,0,0,0,0,0,0,2,1
875133000000,13123,875133000000,wamv1/gps_wamv_link,0,0,-33.724285283,150.673576796,-0.140090094577,0,0,0,0,0,0,0,0,0,2,1
875200000000,13124,875200000000,wamv1/gps_wamv_link,0,0,-33.7242854566,150.673576816,-0.138372554033,0,0,0,0,0,0,0,0,0,2,1
875267000000,13125,875267000000,wamv1/gps_wamv_link,0,0,-33.7242856267,150.673576837,-0.136165660107,0,0,0,0,0,0,0,0,0,2,1
875333000000,13126,875333000000,wamv1/gps_wamv_link,0,0,-33.7242857909,150.67357686,-0.133413419371,0,0,0,0,0,0,0,0,0,2,1
875400000000,13127,875400000000,wamv1/gps_wamv_link,0,0,-33.7242859556,150.673576884,-0.130083753704,0,0,0,0,0,0,0,0,0,2,1
875467000000,13128,875467000000,wamv1/gps_wamv_link,0,0,-33.7242861205,150.673576908,-0.126378500908,0,0,0,0,0,0,0,0,0,2,1
875533000000,13129,875533000000,wamv1/gps_wamv_link,0,0,-33.724286285,150.673576929,-0.122563019634,0,0,0,0,0,0,0,0,0,2,1
875600000000,13130,875600000000,wamv1/gps_wamv_link,0,0,-33.7242864549,150.673576949,-0.118704794885,0,0,0,0,0,0,0,0,0,2,1
875667000000,13131,875667000000,wamv1/gps_wamv_link,0,0,-33.7242866285,150.673576965,-0.114984543598,0,0,0,0,0,0,0,0,0,2,1
875733000000,13132,875733000000,wamv1/gps_wamv_link,0,0,-33.7242868018,150.67357698,-0.111490762921,0,0,0,0,0,0,0,0,0,2,1
875800000000,13133,875800000000,wamv1/gps_wamv_link,0,0,-33.7242869782,150.673576995,-0.108051378896,0,0,0,0,0,0,0,0,0,2,1
875867000000,13134,875867000000,wamv1/gps_wamv_link,0,0,-33.7242871525,150.673577011,-0.104568564871,0,0,0,0,0,0,0,0,0,2,1
875933000000,13135,875933000000,wamv1/gps_wamv_link,0,0,-33.7242873207,150.67357703,-0.100930341035,0,0,0,0,0,0,0,0,0,2,1
876000000000,13136,876000000000,wamv1/gps_wamv_link,0,0,-33.7242874874,150.673577052,-0.0969416771224,0,0,0,0,0,0,0,0,0,2,1
876067000000,13137,876067000000,wamv1/gps_wamv_link,0,0,-33.7242876496,150.673577077,-0.0927188875223,0,0,0,0,0,0,0,0,0,2,1
876133000000,13138,876133000000,wamv1/gps_wamv_link,0,0,-33.7242878067,150.673577104,-0.0885091973054,0,0,0,0,0,0,0,0,0,2,1
876200000000,13139,876200000000,wamv1/gps_wamv_link,0,0,-33.7242879658,150.673577131,-0.0844237411284,0,0,0,0,0,0,0,0,0,2,1
876267000000,13140,876267000000,wamv1/gps_wamv_link,0,0,-33.7242881269,150.673577158,-0.08075768541,0,0,0,0,0,0,0,0,0,2,1
876333000000,13141,876333000000,wamv1/gps_wamv_link,0,0,-33.7242882888,150.673577182,-0.0777300600602,0,0,0,0,0,0,0,0,0,2,1
876400000000,13142,876400000000,wamv1/gps_wamv_link,0,0,-33.7242884563,150.673577205,-0.0753500160905,0,0,0,0,0,0,0,0,0,2,1
876467000000,13143,876467000000,wamv1/gps_wamv_link,0,0,-33.7242886253,150.673577226,-0.0736732957964,0,0,0,0,0,0,0,0,0,2,1
876533000000,13144,876533000000,wamv1/gps_wamv_link,0,0,-33.7242887912,150.673577247,-0.0726112354754,0,0,0,0,0,0,0,0,0,2,1
876600000000,13145,876600000000,wamv1/gps_wamv_link,0,0,-33.724288957,150.673577269,-0.0719588455855,0,0,0,0,0,0,0,0,0,2,1
876667000000,13146,876667000000,wamv1/gps_wamv_link,0,0,-33.7242891197,150.673577294,-0.0715612436561,0,0,0,0,0,0,0,0,0,2,1
876733000000,13147,876733000000,wamv1/gps_wamv_link,0,0,-33.724289277,150.67357732,-0.0713334548796,0,0,0,0,0,0,0,0,0,2,1
876800000000,13148,876800000000,wamv1/gps_wamv_link,0,0,-33.7242894347,150.673577348,-0.0712962744655,0,0,0,0,0,0,0,0,0,2,1
876867000000,13149,876867000000,wamv1/gps_wamv_link,0,0,-33.7242895915,150.673577376,-0.0715667074319,0,0,0,0,0,0,0,0,0,2,1
876933000000,13150,876933000000,wamv1/gps_wamv_link,0,0,-33.724289747,150.673577401,-0.0722606714916,0,0,0,0,0,0,0,0,0,2,1
877000000000,13151,877000000000,wamv1/gps_wamv_link,0,0,-33.7242899078,150.673577424,-0.0735027252466,0,0,0,0,0,0,0,0,0,2,1
877067000000,13152,877067000000,wamv1/gps_wamv_link,0,0,-33.7242900722,150.673577443,-0.0753405279213,0,0,0,0,0,0,0,0,0,2,1
877133000000,13153,877133000000,wamv1/gps_wamv_link,0,0,-33.7242902373,150.673577459,-0.0777150112982,0,0,0,0,0,0,0,0,0,2,1
877200000000,13154,877200000000,wamv1/gps_wamv_link,0,0,-33.7242904062,150.673577474,-0.0805833348109,0,0,0,0,0,0,0,0,0,2,1
877267000000,13155,877267000000,wamv1/gps_wamv_link,0,0,-33.7242905742,150.673577489,-0.0837029585703,0,0,0,0,0,0,0,0,0,2,1
877333000000,13156,877333000000,wamv1/gps_wamv_link,0,0,-33.7242907367,150.673577506,-0.0867765957664,0,0,0,0,0,0,0,0,0,2,1
877400000000,13157,877400000000,wamv1/gps_wamv_link,0,0,-33.7242908972,150.673577525,-0.0896959442653,0,0,0,0,0,0,0,0,0,2,1
877467000000,13158,877467000000,wamv1/gps_wamv_link,0,0,-33.7242910534,150.673577545,-0.0923298481941,0,0,0,0,0,0,0,0,0,2,1
877533000000,13159,877533000000,wamv1/gps_wamv_link,0,0,-33.7242912046,150.673577566,-0.0946930882904,0,0,0,0,0,0,0,0,0,2,1
877600000000,13160,877600000000,wamv1/gps_wamv_link,0,0,-33.7242913576,150.673577587,-0.0969930856535,0,0,0,0,0,0,0,0,0,2,1
877667000000,13161,877667000000,wamv1/gps_wamv_link,0,0,-33.7242915126,150.673577607,-0.0993545269829,0,0,0,0,0,0,0,0,0,2,1
877733000000,13162,877733000000,wamv1/gps_wamv_link,0,0,-33.7242916684,150.673577625,-0.101872890075,0,0,0,0,0,0,0,0,0,2,1
877800000000,13163,877800000000,wamv1/gps_wamv_link,0,0,-33.7242918298,150.673577641,-0.104697323067,0,0,0,0,0,0,0,0,0,2,1
877867000000,13164,877867000000,wamv1/gps_wamv_link,0,0,-33.7242919929,150.673577657,-0.107774998764,0,0,0,0,0,0,0,0,0,2,1
877933000000,13165,877933000000,wamv1/gps_wamv_link,0,0,-33.724292153,150.673577672,-0.110940805724,0,0,0,0,0,0,0,0,0,2,1
878000000000,13166,878000000000,wamv1/gps_wamv_link,0,0,-33.7242923125,150.673577688,-0.114109178555,0,0,0,0,0,0,0,0,0,2,1
878067000000,13167,878067000000,wamv1/gps_wamv_link,0,0,-33.7242924676,150.673577707,-0.117059075033,0,0,0,0,0,0,0,0,0,2,1
878133000000,13168,878133000000,wamv1/gps_wamv_link,0,0,-33.7242926159,150.673577729,-0.119671492103,0,0,0,0,0,0,0,0,0,2,1
878200000000,13169,878200000000,wamv1/gps_wamv_link,0,0,-33.724292763,150.673577755,-0.122070979686,0,0,0,0,0,0,0,0,0,2,1
878267000000,13170,878267000000,wamv1/gps_wamv_link,0,0,-33.7242929086,150.673577782,-0.124362085347,0,0,0,0,0,0,0,0,0,2,1
878333000000,13171,878333000000,wamv1/gps_wamv_link,0,0,-33.7242930526,150.673577808,-0.126691622637,0,0,0,0,0,0,0,0,0,2,1
878400000000,13172,878400000000,wamv1/gps_wamv_link,0,0,-33.7242932011,150.673577833,-0.129289278688,0,0,0,0,0,0,0,0,0,2,1
878467000000,13173,878467000000,wamv1/gps_wamv_link,0,0,-33.7242933527,150.673577854,-0.132222181675,0,0,0,0,0,0,0,0,0,2,1
878533000000,13174,878533000000,wamv1/gps_wamv_link,0,0,-33.7242935046,150.673577873,-0.13545562475,0,0,0,0,0,0,0,0,0,2,1
878600000000,13175,878600000000,wamv1/gps_wamv_link,0,0,-33.7242936599,150.673577891,-0.139003475786,0,0,0,0,0,0,0,0,0,2,1
878667000000,13176,878667000000,wamv1/gps_wamv_link,0,0,-33.7242938146,150.673577909,-0.142639047021,0,0,0,0,0,0,0,0,0,2,1
878733000000,13177,878733000000,wamv1/gps_wamv_link,0,0,-33.7242939643,150.673577929,-0.146086369589,0,0,0,0,0,0,0,0,0,2,1
878800000000,13178,878800000000,wamv1/gps_wamv_link,0,0,-33.7242941126,150.673577951,-0.149260146831,0,0,0,0,0,0,0,0,0,2,1
878867000000,13179,878867000000,wamv1/gps_wamv_link,0,0,-33.7242942572,150.673577975,-0.152011753131,0,0,0,0,0,0,0,0,0,2,1
878933000000,13180,878933000000,wamv1/gps_wamv_link,0,0,-33.7242943973,150.673577998,-0.154324285908,0,0,0,0,0,0,0,0,0,2,1
879000000000,13181,879000000000,wamv1/gps_wamv_link,0,0,-33.7242945393,150.673578021,-0.156355434385,0,0,0,0,0,0,0,0,0,2,1
879067000000,13182,879067000000,wamv1/gps_wamv_link,0,0,-33.7242946834,150.673578041,-0.158176278249,0,0,0,0,0,0,0,0,0,2,1
879133000000,13183,879133000000,wamv1/gps_wamv_link,0,0,-33.7242948287,150.673578059,-0.159848401657,0,0,0,0,0,0,0,0,0,2,1
879200000000,13184,879200000000,wamv1/gps_wamv_link,0,0,-33.72429498,150.673578074,-0.16145461911,0,0,0,0,0,0,0,0,0,2,1
879267000000,13185,879267000000,wamv1/gps_wamv_link,0,0,-33.7242951337,150.673578087,-0.162921125475,0,0,0,0,0,0,0,0,0,2,1
879333000000,13186,879333000000,wamv1/gps_wamv_link,0,0,-33.7242952855,150.673578099,-0.164092583676,0,0,0,0,0,0,0,0,0,2,1
879400000000,13187,879400000000,wamv1/gps_wamv_link,0,0,-33.7242954376,150.673578112,-0.164800665877,0,0,0,0,0,0,0,0,0,2,1
879467000000,13188,879467000000,wamv1/gps_wamv_link,0,0,-33.724295586,150.673578127,-0.164823731176,0,0,0,0,0,0,0,0,0,2,1
879533000000,13189,879533000000,wamv1/gps_wamv_link,0,0,-33.7242957282,150.673578143,-0.164065157481,0,0,0,0,0,0,0,0,0,2,1
879600000000,13190,879600000000,wamv1/gps_wamv_link,0,0,-33.7242958692,150.673578162,-0.162518119541,0,0,0,0,0,0,0,0,0,2,1
879667000000,13191,879667000000,wamv1/gps_wamv_link,0,0,-33.7242960086,150.673578182,-0.160319494429,0,0,0,0,0,0,0,0,0,2,1
879733000000,13192,879733000000,wamv1/gps_wamv_link,0,0,-33.7242961465,150.673578201,-0.15770341475,0,0,0,0,0,0,0,0,0,2,1
879800000000,13193,879800000000,wamv1/gps_wamv_link,0,0,-33.7242962888,150.67357822,-0.154781984044,0,0,0,0,0,0,0,0,0,2,1
879867000000,13194,879867000000,wamv1/gps_wamv_link,0,0,-33.7242964339,150.673578237,-0.151744844593,0,0,0,0,0,0,0,0,0,2,1
879933000000,13195,879933000000,wamv1/gps_wamv_link,0,0,-33.7242965793,150.673578253,-0.148720289051,0,0,0,0,0,0,0,0,0,2,1
880000000000,13196,880000000000,wamv1/gps_wamv_link,0,0,-33.7242967278,150.673578268,-0.145610975002,0,0,0,0,0,0,0,0,0,2,1
880067000000,13197,880067000000,wamv1/gps_wamv_link,0,0,-33.7242968752,150.673578285,-0.142376490513,0,0,0,0,0,0,0,0,0,2,1
880133000000,13198,880133000000,wamv1/gps_wamv_link,0,0,-33.7242970175,150.673578304,-0.138951767762,0,0,0,0,0,0,0,0,0,2,1
880200000000,13199,880200000000,wamv1/gps_wamv_link,0,0,-33.724297158,150.673578325,-0.135154769057,0,0,0,0,0,0,0,0,0,2,1
880267000000,13200,880267000000,wamv1/gps_wamv_link,0,0,-33.7242972946,150.673578349,-0.131053607462,0,0,0,0,0,0,0,0,0,2,1
880333000000,13201,880333000000,wamv1/gps_wamv_link,0,0,-33.7242974268,150.673578375,-0.126836511501,0,0,0,0,0,0,0,0,0,2,1
880400000000,13202,880400000000,wamv1/gps_wamv_link,0,0,-33.7242975605,150.673578401,-0.12256095476,0,0,0,0,0,0,0,0,0,2,1
880467000000,13203,880467000000,wamv1/gps_wamv_link,0,0,-33.7242976958,150.673578427,-0.118483730549,0,0,0,0,0,0,0,0,0,2,1
880533000000,13204,880533000000,wamv1/gps_wamv_link,0,0,-33.724297832,150.67357845,-0.114812498358,0,0,0,0,0,0,0,0,0,2,1
880600000000,13205,880600000000,wamv1/gps_wamv_link,0,0,-33.7242979735,150.673578471,-0.111524016437,0,0,0,0,0,0,0,0,0,2,1
880667000000,13206,880667000000,wamv1/gps_wamv_link,0,0,-33.7242981173,150.67357849,-0.108680051334,0,0,0,0,0,0,0,0,0,2,1
880733000000,13207,880733000000,wamv1/gps_wamv_link,0,0,-33.7242982595,150.673578508,-0.106224425371,0,0,0,0,0,0,0,0,0,2,1
880800000000,13208,880800000000,wamv1/gps_wamv_link,0,0,-33.7242984023,150.673578527,-0.103921264587,0,0,0,0,0,0,0,0,0,2,1
880867000000,13209,880867000000,wamv1/gps_wamv_link,0,0,-33.7242985423,150.673578547,-0.10163342944,0,0,0,0,0,0,0,0,0,2,1
880933000000,13210,880933000000,wamv1/gps_wamv_link,0,0,-33.724298677,150.673578569,-0.0992787039207,0,0,0,0,0,0,0,0,0,2,1
881000000000,13211,881000000000,wamv1/gps_wamv_link,0,0,-33.7242988112,150.673578592,-0.0967659398345,0,0,0,0,0,0,0,0,0,2,1
881067000000,13212,881067000000,wamv1/gps_wamv_link,0,0,-33.7242989453,150.673578614,-0.0942005527656,0,0,0,0,0,0,0,0,0,2,1
881133000000,13213,881133000000,wamv1/gps_wamv_link,0,0,-33.7242990788,150.673578634,-0.0917485114796,0,0,0,0,0,0,0,0,0,2,1
881200000000,13214,881200000000,wamv1/gps_wamv_link,0,0,-33.7242992167,150.673578652,-0.0894674499544,0,0,0,0,0,0,0,0,0,2,1
881267000000,13215,881267000000,wamv1/gps_wamv_link,0,0,-33.7242993578,150.673578668,-0.0874900472425,0,0,0,0,0,0,0,0,0,2,1
881333000000,13216,881333000000,wamv1/gps_wamv_link,0,0,-33.7242994997,150.673578682,-0.0858675171719,0,0,0,0,0,0,0,0,0,2,1
881400000000,13217,881400000000,wamv1/gps_wamv_link,0,0,-33.7242996453,150.673578695,-0.0844964072633,0,0,0,0,0,0,0,0,0,2,1
881467000000,13218,881467000000,wamv1/gps_wamv_link,0,0,-33.7242997916,150.673578708,-0.0832690836738,0,0,0,0,0,0,0,0,0,2,1
881533000000,13219,881533000000,wamv1/gps_wamv_link,0,0,-33.7242999344,150.673578721,-0.0820420359755,0,0,0,0,0,0,0,0,0,2,1
881600000000,13220,881600000000,wamv1/gps_wamv_link,0,0,-33.7243000768,150.673578735,-0.0806565007352,0,0,0,0,0,0,0,0,0,2,1
881667000000,13221,881667000000,wamv1/gps_wamv_link,0,0,-33.7243002166,150.673578751,-0.0791053521375,0,0,0,0,0,0,0,0,0,2,1
881733000000,13222,881733000000,wamv1/gps_wamv_link,0,0,-33.7243003528,150.673578767,-0.0774993793835,0,0,0,0,0,0,0,0,0,2,1
881800000000,13223,881800000000,wamv1/gps_wamv_link,0,0,-33.7243004914,150.673578784,-0.0759506709954,0,0,0,0,0,0,0,0,0,2,1
881867000000,13224,881867000000,wamv1/gps_wamv_link,0,0,-33.7243006323,150.6735788,-0.0746670389225,0,0,0,0,0,0,0,0,0,2,1
881933000000,13225,881933000000,wamv1/gps_wamv_link,0,0,-33.7243007746,150.673578814,-0.0738159112086,0,0,0,0,0,0,0,0,0,2,1
882000000000,13226,882000000000,wamv1/gps_wamv_link,0,0,-33.7243009228,150.673578827,-0.0734739326436,0,0,0,0,0,0,0,0,0,2,1
882067000000,13227,882067000000,wamv1/gps_wamv_link,0,0,-33.7243010738,150.673578839,-0.0736882867522,0,0,0,0,0,0,0,0,0,2,1
882133000000,13228,882133000000,wamv1/gps_wamv_link,0,0,-33.7243012237,150.673578849,-0.0743960298974,0,0,0,0,0,0,0,0,0,2,1
882200000000,13229,882200000000,wamv1/gps_wamv_link,0,0,-33.7243013748,150.67357886,-0.0755116666185,0,0,0,0,0,0,0,0,0,2,1
882267000000,13230,882267000000,wamv1/gps_wamv_link,0,0,-33.7243015222,150.673578873,-0.0769122949147,0,0,0,0,0,0,0,0,0,2,1
882333000000,13231,882333000000,wamv1/gps_wamv_link,0,0,-33.7243016631,150.673578889,-0.0784948318098,0,0,0,0,0,0,0,0,0,2,1
882400000000,13232,882400000000,wamv1/gps_wamv_link,0,0,-33.7243018024,150.673578907,-0.0803074130799,0,0,0,0,0,0,0,0,0,2,1
882467000000,13233,882467000000,wamv1/gps_wamv_link,0,0,-33.7243019395,150.673578927,-0.08240012108,0,0,0,0,0,0,0,0,0,2,1
882533000000,13234,882533000000,wamv1/gps_wamv_link,0,0,-33.7243020742,150.673578946,-0.0848398966339,0,0,0,0,0,0,0,0,0,2,1
882600000000,13235,882600000000,wamv1/gps_wamv_link,0,0,-33.7243022122,150.673578964,-0.0877992148133,0,0,0,0,0,0,0,0,0,2,1
882667000000,13236,882667000000,wamv1/gps_wamv_link,0,0,-33.7243023525,150.673578979,-0.0913053648688,0,0,0,0,0,0,0,0,0,2,1
882733000000,13237,882733000000,wamv1/gps_wamv_link,0,0,-33.7243024929,150.673578992,-0.0952919022821,0,0,0,0,0,0,0,0,0,2,1
882800000000,13238,882800000000,wamv1/gps_wamv_link,0,0,-33.7243026364,150.673579004,-0.0997952331468,0,0,0,0,0,0,0,0,0,2,1
882867000000,13239,882867000000,wamv1/gps_wamv_link,0,0,-33.7243027791,150.673579016,-0.104587790016,0,0,0,0,0,0,0,0,0,2,1
882933000000,13240,882933000000,wamv1/gps_wamv_link,0,0,-33.7243029173,150.673579029,-0.109372974363,0,0,0,0,0,0,0,0,0,2,1
883000000000,13241,883000000000,wamv1/gps_wamv_link,0,0,-33.7243030539,150.673579043,-0.114084730101,0,0,0,0,0,0,0,0,0,2,1
883067000000,13242,883067000000,wamv1/gps_wamv_link,0,0,-33.7243031867,150.673579058,-0.118511328535,0,0,0,0,0,0,0,0,0,2,1
883133000000,13243,883133000000,wamv1/gps_wamv_link,0,0,-33.7243033145,150.673579073,-0.122558101406,0,0,0,0,0,0,0,0,0,2,1
883200000000,13244,883200000000,wamv1/gps_wamv_link,0,0,-33.7243034431,150.673579088,-0.126397499202,0,0,0,0,0,0,0,0,0,2,1
883267000000,13245,883267000000,wamv1/gps_wamv_link,0,0,-33.7243035725,150.673579102,-0.13005844753,0,0,0,0,0,0,0,0,0,2,1
883333000000,13246,883333000000,wamv1/gps_wamv_link,0,0,-33.724303702,150.673579115,-0.133576762818,0,0,0,0,0,0,0,0,0,2,1
883400000000,13247,883400000000,wamv1/gps_wamv_link,0,0,-33.7243038359,150.673579126,-0.137106369279,0,0,0,0,0,0,0,0,0,2,1
883467000000,13248,883467000000,wamv1/gps_wamv_link,0,0,-33.7243039713,150.673579137,-0.140572966668,0,0,0,0,0,0,0,0,0,2,1
883533000000,13249,883533000000,wamv1/gps_wamv_link,0,0,-33.7243041045,150.673579147,-0.143828521819,0,0,0,0,0,0,0,0,0,2,1
883600000000,13250,883600000000,wamv1/gps_wamv_link,0,0,-33.7243042376,150.673579158,-0.146813596834,0,0,0,0,0,0,0,0,0,2,1
883667000000,13251,883667000000,wamv1/gps_wamv_link,0,0,-33.7243043671,150.673579171,-0.149313276444,0,0,0,0,0,0,0,0,0,2,1
883733000000,13252,883733000000,wamv1/gps_wamv_link,0,0,-33.7243044904,150.673579186,-0.151203233391,0,0,0,0,0,0,0,0,0,2,1
883800000000,13253,883800000000,wamv1/gps_wamv_link,0,0,-33.724304612,150.673579203,-0.152545878553,0,0,0,0,0,0,0,0,0,2,1
883867000000,13254,883867000000,wamv1/gps_wamv_link,0,0,-33.7243047312,150.673579223,-0.153413429335,0,0,0,0,0,0,0,0,0,2,1
883933000000,13255,883933000000,wamv1/gps_wamv_link,0,0,-33.7243048481,150.673579243,-0.15396214958,0,0,0,0,0,0,0,0,0,2,1
884000000000,13256,884000000000,wamv1/gps_wamv_link,0,0,-33.7243049678,150.673579263,-0.154374559429,0,0,0,0,0,0,0,0,0,2,1
884067000000,13257,884067000000,wamv1/gps_wamv_link,0,0,-33.7243050894,150.673579282,-0.154771888036,0,0,0,0,0,0,0,0,0,2,1
884133000000,13258,884133000000,wamv1/gps_wamv_link,0,0,-33.724305211,150.6735793,-0.155214375688,0,0,0,0,0,0,0,0,0,2,1
884200000000,13259,884200000000,wamv1/gps_wamv_link,0,0,-33.7243053352,150.673579318,-0.155704363396,0,0,0,0,0,0,0,0,0,2,1
884267000000,13260,884267000000,wamv1/gps_wamv_link,0,0,-33.7243054586,150.673579336,-0.156149778713,0,0,0,0,0,0,0,0,0,2,1
884333000000,13261,884333000000,wamv1/gps_wamv_link,0,0,-33.7243055777,150.673579356,-0.156420525567,0,0,0,0,0,0,0,0,0,2,1
884400000000,13262,884400000000,wamv1/gps_wamv_link,0,0,-33.7243056952,150.673579378,-0.156411905803,0,0,0,0,0,0,0,0,0,2,1
884467000000,13263,884467000000,wamv1/gps_wamv_link,0,0,-33.7243058091,150.673579402,-0.156067927298,0,0,0,0,0,0,0,0,0,2,1
884533000000,13264,884533000000,wamv1/gps_wamv_link,0,0,-33.7243059187,150.673579426,-0.155431484994,0,0,0,0,0,0,0,0,0,2,1
884600000000,13265,884600000000,wamv1/gps_wamv_link,0,0,-33.7243060289,150.673579451,-0.154573185919,0,0,0,0,0,0,0,0,0,2,1
884667000000,13266,884667000000,wamv1/gps_wamv_link,0,0,-33.72430614,150.673579475,-0.153610434743,0,0,0,0,0,0,0,0,0,2,1
884733000000,13267,884733000000,wamv1/gps_wamv_link,0,0,-33.7243062516,150.673579497,-0.152648787076,0,0,0,0,0,0,0,0,0,2,1
884800000000,13268,884800000000,wamv1/gps_wamv_link,0,0,-33.7243063675,150.673579517,-0.151704657156,0,0,0,0,0,0,0,0,0,2,1
884867000000,13269,884867000000,wamv1/gps_wamv_link,0,0,-33.7243064854,150.673579536,-0.15077457184,0,0,0,0,0,0,0,0,0,2,1
884933000000,13270,884933000000,wamv1/gps_wamv_link,0,0,-33.7243066021,150.673579553,-0.149782681298,0,0,0,0,0,0,0,0,0,2,1
885000000000,13271,885000000000,wamv1/gps_wamv_link,0,0,-33.7243067195,150.673579571,-0.14854908673,0,0,0,0,0,0,0,0,0,2,1
885067000000,13272,885067000000,wamv1/gps_wamv_link,0,0,-33.7243068343,150.67357959,-0.146921249836,0,0,0,0,0,0,0,0,0,2,1
885133000000,13273,885133000000,wamv1/gps_wamv_link,0,0,-33.724306944,150.67357961,-0.144813758803,0,0,0,0,0,0,0,0,0,2,1
885200000000,13274,885200000000,wamv1/gps_wamv_link,0,0,-33.7243070525,150.673579631,-0.142130300511,0,0,0,0,0,0,0,0,0,2,1
885267000000,13275,885267000000,wamv1/gps_wamv_link,0,0,-33.7243071591,150.673579653,-0.138959834288,0,0,0,0,0,0,0,0,0,2,1
885333000000,13276,885333000000,wamv1/gps_wamv_link,0,0,-33.7243072639,150.673579674,-0.135482749218,0,0,0,0,0,0,0,0,0,2,1
885400000000,13277,885400000000,wamv1/gps_wamv_link,0,0,-33.7243073717,150.673579695,-0.131738212156,0,0,0,0,0,0,0,0,0,2,1
885467000000,13278,885467000000,wamv1/gps_wamv_link,0,0,-33.7243074817,150.673579714,-0.12790418842,0,0,0,0,0,0,0,0,0,2,1
885533000000,13279,885533000000,wamv1/gps_wamv_link,0,0,-33.7243075922,150.673579733,-0.124116809809,0,0,0,0,0,0,0,0,0,2,1
885600000000,13280,885600000000,wamv1/gps_wamv_link,0,0,-33.7243077053,150.673579752,-0.120272827772,0,0,0,0,0,0,0,0,0,2,1
885667000000,13281,885667000000,wamv1/gps_wamv_link,0,0,-33.7243078178,150.673579772,-0.116375466823,0,0,0,0,0,0,0,0,0,2,1
885733000000,13282,885733000000,wamv1/gps_wamv_link,0,0,-33.7243079263,150.673579792,-0.112397493462,0,0,0,0,0,0,0,0,0,2,1
885800000000,13283,885800000000,wamv1/gps_wamv_link,0,0,-33.7243080329,150.673579815,-0.108150630349,0,0,0,0,0,0,0,0,0,2,1
885867000000,13284,885867000000,wamv1/gps_wamv_link,0,0,-33.724308136,150.673579841,-0.103697230784,0,0,0,0,0,0,0,0,0,2,1
885933000000,13285,885933000000,wamv1/gps_wamv_link,0,0,-33.7243082348,150.673579867,-0.0992005883212,0,0,0,0,0,0,0,0,0,2,1
886000000000,13286,886000000000,wamv1/gps_wamv_link,0,0,-33.7243083339,150.673579896,-0.0946876879687,0,0,0,0,0,0,0,0,0,2,1
886067000000,13287,886067000000,wamv1/gps_wamv_link,0,0,-33.7243084335,150.673579925,-0.0904174787812,0,0,0,0,0,0,0,0,0,2,1
886133000000,13288,886133000000,wamv1/gps_wamv_link,0,0,-33.7243085334,150.673579953,-0.0866169811716,0,0,0,0,0,0,0,0,0,2,1
886200000000,13289,886200000000,wamv1/gps_wamv_link,0,0,-33.7243086369,150.673579981,-0.0832925943632,0,0,0,0,0,0,0,0,0,2,1
886267000000,13290,886267000000,wamv1/gps_wamv_link,0,0,-33.724308742,150.673580007,-0.0805576893726,0,0,0,0,0,0,0,0,0,2,1
886333000000,13291,886333000000,wamv1/gps_wamv_link,0,0,-33.7243088458,150.673580033,-0.0784140407465,0,0,0,0,0,0,0,0,0,2,1
