t,field.header.seq,field.header.stamp,field.header.frame_id,field.status.status,field.status.service,Y,X,field.altitude,field.position_covariance0,field.position_covariance1,field.position_covariance2,field.position_covariance3,field.position_covariance4,field.position_covariance5,field.position_covariance6,field.position_covariance7,field.position_covariance8,field.position_covariance_type,trajectory_id
854267000000,12807,854267000000,wamv3/gps_wamv_link,0,0,-33.7243130749,150.673693614,-0.0885236880379,0,0,0,0,0,0,0,0,0,2,3
854333000000,12808,854333000000,wamv3/gps_wamv_link,0,0,-33.7243130767,150.673693619,-0.10324541898,0,0,0,0,0,0,0,0,0,2,3
854400000000,12809,854400000000,wamv3/gps_wamv_link,0,0,-33.7243130831,150.673693618,-0.121964049661,0,0,0,0,0,0,0,0,0,2,3
854467000000,12810,854467000000,wamv3/gps_wamv_link,0,0,-33.7243130962,150.673693597,-0.136543583659,0,0,0,0,0,0,0,0,0,2,3
854533000000,12811,854533000000,wamv3/gps_wamv_link,0,0,-33.724313115,150.67369355,-0.141729307485,0,0,0,0,0,0,0,0,0,2,3
854600000000,12812,854600000000,wamv3/gps_wamv_link,0,0,-33.7243131381,150.673693481,-0.137813371777,0,0,0,0,0,0,0,0,0,2,3
854667000000,12813,854667000000,wamv3/gps_wamv_link,0,0,-33.7243131634,150.673693399,-0.129497952151,0,0,0,0,0,0,0,0,0,2,3
854733000000,12814,854733000000,wamv3/gps_wamv_link,0,0,-33.7243131908,150.673693321,-0.123125943231,0,0,0,0,0,0,0,0,0,2,3
854800000000,12815,854800000000,wamv3/gps_wamv_link,0,0,-33.7243132234,150.673693256,-0.122683765117,0,0,0,0,0,0,0,0,0,2,3
854867000000,12816,854867000000,wamv3/gps_wamv_link,0,0,-33.7243132635,150.673693211,-0.128984508026,0,0,0,0,0,0,0,0,0,2,3
854933000000,12817,854933000000,wamv3/gps_wamv_link,0,0,-33.7243133113,150.673693184,-0.139420144433,0,0,0,0,0,0,0,0,0,2,3
855000000000,12818,855000000000,wamv3/gps_wamv_link,0,0,-33.7243133673,150.673693169,-0.150074324873,0,0,0,0,0,0,0,0,0,2,3
855067000000,12819,855067000000,wamv3/gps_wamv_link,0,0,-33.724313428,150.673693152,-0.156506292503,0,0,0,0,0,0,0,0,0,2,3
855133000000,12820,855133000000,wamv3/gps_wamv_link,0,0,-33.7243134906,150.673693122,-0.15657967302,0,0,0,0,0,0,0,0,0,2,3
855200000000,12821,855200000000,wamv3/gps_wamv_link,0,0,-33.7243135572,150.673693068,-0.151426010102,0,0,0,0,0,0,0,0,0,2,3
855267000000,12822,855267000000,wamv3/gps_wamv_link,0,0,-33.7243136298,150.673692994,-0.144826415664,0,0,0,0,0,0,0,0,0,2,3
855333000000,12823,855333000000,wamv3/gps_wamv_link,0,0,-33.72431371,150.673692906,-0.141178798367,0,0,0,0,0,0,0,0,0,2,3
855400000000,12824,855400000000,wamv3/gps_wamv_link,0,0,-33.7243138011,150.673692814,-0.142891914686,0,0,0,0,0,0,0,0,0,2,3
855467000000,12825,855467000000,wamv3/gps_wamv_link,0,0,-33.7243139001,150.67369273,-0.149563307583,0,0,0,0,0,0,0,0,0,2,3
855533000000,12826,855533000000,wamv3/gps_wamv_link,0,0,-33.724314002,150.673692663,-0.158084097235,0,0,0,0,0,0,0,0,0,2,3
855600000000,12827,855600000000,wamv3/gps_wamv_link,0,0,-33.724314107,150.673692612,-0.165028303762,0,0,0,0,0,0,0,0,0,2,3
855667000000,12828,855667000000,wamv3/gps_wamv_link,0,0,-33.7243142138,150.673692572,-0.167587324739,0,0,0,0,0,0,0,0,0,2,3
855733000000,12829,855733000000,wamv3/gps_wamv_link,0,0,-33.7243143237,150.673692536,-0.165272842519,0,0,0,0,0,0,0,0,0,2,3
855800000000,12830,855800000000,wamv3/gps_wamv_link,0,0,-33.7243144437,150.673692491,-0.159593168114,0,0,0,0,0,0,0,0,0,2,3
855867000000,12831,855867000000,wamv3/gps_wamv_link,0,0,-33.7243145741,150.673692428,-0.153408966308,0,0,0,0,0,0,0,0,0,2,3
855933000000,12832,855933000000,wamv3/gps_wamv_link,0,0,-33.7243147116,150.673692347,-0.149570996885,0,0,0,0,0,0,0,0,0,2,3
856000000000,12833,856000000000,wamv3/gps_wamv_link,0,0,-33.724314857,150.673692247,-0.149547787965,0,0,0,0,0,0,0,0,0,2,3
856067000000,12834,856067000000,wamv3/gps_wamv_link,0,0,-33.7243150024,150.673692138,-0.153104739554,0,0,0,0,0,0,0,0,0,2,3
856133000000,12835,856133000000,wamv3/gps_wamv_link,0,0,-33.7243151445,150.67369203,-0.158005564708,0,0,0,0,0,0,0,0,0,2,3
856200000000,12836,856200000000,wamv3/gps_wamv_link,0,0,-33.7243152903,150.67369193,-0.161456476412,0,0,0,0,0,0,0,0,0,2,3
856267000000,12837,856267000000,wamv3/gps_wamv_link,0,0,-33.7243154407,150.673691847,-0.161103965168,0,0,0,0,0,0,0,0,0,2,3
856333000000,12838,856333000000,wamv3/gps_wamv_link,0,0,-33.7243155948,150.67369178,-0.156562372055,0,0,0,0,0,0,0,0,0,2,3
856400000000,12839,856400000000,wamv3/gps_wamv_link,0,0,-33.724315756,150.673691721,-0.149043729409,0,0,0,0,0,0,0,0,0,2,3
856467000000,12840,856467000000,wamv3/gps_wamv_link,0,0,-33.7243159195,150.673691663,-0.140902255942,0,0,0,0,0,0,0,0,0,2,3
856533000000,12841,856533000000,wamv3/gps_wamv_link,0,0,-33.7243160813,150.673691597,-0.134285650254,0,0,0,0,0,0,0,0,0,2,3
856600000000,12842,856600000000,wamv3/gps_wamv_link,0,0,-33.7243162479,150.673691513,-0.130014596798,0,0,0,0,0,0,0,0,0,2,3
856667000000,12843,856667000000,wamv3/gps_wamv_link,0,0,-33.7243164203,150.673691413,-0.128072883113,0,0,0,0,0,0,0,0,0,2,3
856733000000,12844,856733000000,wamv3/gps_wamv_link,0,0,-33.7243165988,150.673691304,-0.127426050472,0,0,0,0,0,0,0,0,0,2,3
856800000000,12845,856800000000,wamv3/gps_wamv_link,0,0,-33.7243167893,150.67369119,-0.126564052865,0,0,0,0,0,0,0,0,0,2,3
856867000000,12846,856867000000,wamv3/gps_wamv_link,0,0,-33.7243169863,150.673691084,-0.124111949444,0,0,0,0,0,0,0,0,0,2,3
856933000000,12847,856933000000,wamv3/gps_wamv_link,0,0,-33.7243171823,150.673690995,-0.119500251449,0,0,0,0,0,0,0,0,0,2,3
857000000000,12848,857000000000,wamv3/gps_wamv_link,0,0,-33.7243173802,150.673690921,-0.112991424472,0,0,0,0,0,0,0,0,0,2,3
857067000000,12849,857067000000,wamv3/gps_wamv_link,0,0,-33.7243175773,150.673690861,-0.105901002849,0,0,0,0,0,0,0,0,0,2,3
857133000000,12850,857133000000,wamv3/gps_wamv_link,0,0,-33.7243177742,150.673690809,-0.0997320317657,0,0,0,0,0,0,0,0,0,2,3
857200000000,12851,857200000000,wamv3/gps_wamv_link,0,0,-33.7243179813,150.673690755,-0.0951127421613,0,0,0,0,0,0,0,0,0,2,3
857267000000,12852,857267000000,wamv3/gps_wamv_link,0,0,-33.7243181985,150.673690689,-0.0921096832818,0,0,0,0,0,0,0,0,0,2,3
857333000000,12853,857333000000,wamv3/gps_wamv_link,0,0,-33.7243184219,150.673690609,-0.0901809907895,0,0,0,0,0,0,0,0,0,2,3
857400000000,12854,857400000000,wamv3/gps_wamv_link,0,0,-33.7243186547,150.673690512,-0.0886965528917,0,0,0,0,0,0,0,0,0,2,3
857467000000,12855,857467000000,wamv3/gps_wamv_link,0,0,-33.7243188885,150.673690404,-0.0873438022197,0,0,0,0,0,0,0,0,0,2,3
857533000000,12856,857533000000,wamv3/gps_wamv_link,0,0,-33.7243191169,150.673690297,-0.085963539448,0,0,0,0,0,0,0,0,0,2,3
857600000000,12857,857600000000,wamv3/gps_wamv_link,0,0,-33.7243193461,150.673690197,-0.0843947100159,0,0,0,0,0,0,0,0,0,2,3
857667000000,12858,857667000000,wamv3/gps_wamv_link,0,0,-33.7243195734,150.673690111,-0.0826348123203,0,0,0,0,0,0,0,0,0,2,3
857733000000,12859,857733000000,wamv3/gps_wamv_link,0,0,-33.7243197959,150.673690041,-0.0808643553017,0,0,0,0,0,0,0,0,0,2,3
857800000000,12860,857800000000,wamv3/gps_wamv_link,0,0,-33.7243200197,150.673689979,-0.079272028861,0,0,0,0,0,0,0,0,0,2,3
857867000000,12861,857867000000,wamv3/gps_wamv_link,0,0,-33.7243202402,150.673689916,-0.0780016835677,0,0,0,0,0,0,0,0,0,2,3
857933000000,12862,857933000000,wamv3/gps_wamv_link,0,0,-33.7243204543,150.673689844,-0.0769794357397,0,0,0,0,0,0,0,0,0,2,3
858000000000,12863,858000000000,wamv3/gps_wamv_link,0,0,-33.7243206704,150.673689753,-0.0760868232559,0,0,0,0,0,0,0,0,0,2,3
858067000000,12864,858067000000,wamv3/gps_wamv_link,0,0,-33.7243208881,150.673689644,-0.0755000378669,0,0,0,0,0,0,0,0,0,2,3
858133000000,12865,858133000000,wamv3/gps_wamv_link,0,0,-33.7243211057,150.673689523,-0.0755782198866,0,0,0,0,0,0,0,0,0,2,3
858200000000,12866,858200000000,wamv3/gps_wamv_link,0,0,-33.7243213288,150.673689396,-0.0765454934993,0,0,0,0,0,0,0,0,0,2,3
858267000000,12867,858267000000,wamv3/gps_wamv_link,0,0,-33.7243215506,150.673689275,-0.0781803161615,0,0,0,0,0,0,0,0,0,2,3
858333000000,12868,858333000000,wamv3/gps_wamv_link,0,0,-33.7243217632,150.673689167,-0.0798519296052,0,0,0,0,0,0,0,0,0,2,3
858400000000,12869,858400000000,wamv3/gps_wamv_link,0,0,-33.7243219707,150.673689073,-0.0810260925678,0,0,0,0,0,0,0,0,0,2,3
858467000000,12870,858467000000,wamv3/gps_wamv_link,0,0,-33.7243221704,150.673688991,-0.0814478881295,0,0,0,0,0,0,0,0,0,2,3
858533000000,12871,858533000000,wamv3/gps_wamv_link,0,0,-33.7243223633,150.673688917,-0.0812947314128,0,0,0,0,0,0,0,0,0,2,3
858600000000,12872,858600000000,wamv3/gps_wamv_link,0,0,-33.7243225603,150.67368884,-0.0809420075879,0,0,0,0,0,0,0,0,0,2,3
858667000000,12873,858667000000,wamv3/gps_wamv_link,0,0,-33.7243227614,150.673688754,-0.0808366680289,0,0,0,0,0,0,0,0,0,2,3
858733000000,12874,858733000000,wamv3/gps_wamv_link,0,0,-33.7243229637,150.673688654,-0.0814466495036,0,0,0,0,0,0,0,0,0,2,3
858800000000,12875,858800000000,wamv3/gps_wamv_link,0,0,-33.7243231708,150.673688539,-0.0832465383597,0,0,0,0,0,0,0,0,0,2,3
858867000000,12876,858867000000,wamv3/gps_wamv_link,0,0,-33.7243233763,150.673688415,-0.0864444216663,0,0,0,0,0,0,0,0,0,2,3
858933000000,12877,858933000000,wamv3/gps_wamv_link,0,0,-33.7243235761,150.673688291,-0.0906759384025,0,0,0,0,0,0,0,0,0,2,3
859000000000,12878,859000000000,wamv3/gps_wamv_link,0,0,-33.7243237777,150.673688176,-0.0953165160655,0,0,0,0,0,0,0,0,0,2,3
859067000000,12879,859067000000,wamv3/gps_wamv_link,0,0,-33.7243239784,150.673688075,-0.0994830048784,0,0,0,0,0,0,0,0,0,2,3
859133000000,12880,859133000000,wamv3/gps_wamv_link,0,0,-33.7243241755,150.673687991,-0.102708115333,0,0,0,0,0,0,0,0,0,2,3
859200000000,12881,859200000000,wamv3/gps_wamv_link,0,0,-33.7243243746,150.673687916,-0.105222894273,0,0,0,0,0,0,0,0,0,2,3
859267000000,12882,859267000000,wamv3/gps_wamv_link,0,0,-33.7243245732,150.673687843,-0.107464623847,0,0,0,0,0,0,0,0,0,2,3
859333000000,12883,859333000000,wamv3/gps_wamv_link,0,0,-33.7243247696,150.673687763,-0.109933490136,0,0,0,0,0,0,0,0,0,2,3
859400000000,12884,859400000000,wamv3/gps_wamv_link,0,0,-33.7243249727,150.673687667,-0.113127657772,0,0,0,0,0,0,0,0,0,2,3
859468000000,12885,859467000000,wamv3/gps_wamv_link,0,0,-33.7243251823,150.673687554,-0.117311304282,0,0,0,0,0,0,0,0,0,2,3
859533000000,12886,859533000000,wamv3/gps_wamv_link,0,0,-33.7243253962,150.673687432,-0.122501248133,0,0,0,0,0,0,0,0,0,2,3
859600000000,12887,859600000000,wamv3/gps_wamv_link,0,0,-33.724325619,150.673687303,-0.128597503418,0,0,0,0,0,0,0,0,0,2,3
859667000000,12888,859667000000,wamv3/gps_wamv_link,0,0,-33.724325843,150.673687177,-0.134837372386,0,0,0,0,0,0,0,0,0,2,3
859733000000,12889,859733000000,wamv3/gps_wamv_link,0,0,-33.7243260604,150.673687063,-0.140264558775,0,0,0,0,0,0,0,0,0,2,3
859800000000,12890,859800000000,wamv3/gps_wamv_link,0,0,-33.7243262753,150.673686959,-0.144422559432,0,0,0,0,0,0,0,0,0,2,3
859867000000,12891,859867000000,wamv3/gps_wamv_link,0,0,-33.7243264851,150.673686866,-0.147146790478,0,0,0,0,0,0,0,0,0,2,3
859933000000,12892,859933000000,wamv3/gps_wamv_link,0,0,-33.7243266906,150.673686781,-0.148830152988,0,0,0,0,0,0,0,0,0,2,3
860000000000,12893,860000000000,wamv3/gps_wamv_link,0,0,-33.7243269024,150.673686694,-0.150094965912,0,0,0,0,0,0,0,0,0,2,3
860067000000,12894,860067000000,wamv3/gps_wamv_link,0,0,-33.7243271206,150.673686599,-0.151379151662,0,0,0,0,0,0,0,0,0,2,3
860133000000,12895,860133000000,wamv3/gps_wamv_link,0,0,-33.7243273419,150.673686493,-0.152947322618,0,0,0,0,0,0,0,0,0,2,3
860200000000,12896,860200000000,wamv3/gps_wamv_link,0,0,-33.724327571,150.673686372,-0.154985725738,0,0,0,0,0,0,0,0,0,2,3
860267000000,12897,860267000000,wamv3/gps_wamv_link,0,0,-33.7243278017,150.673686243,-0.157407136104,0,0,0,0,0,0,0,0,0,2,3
860333000000,12898,860333000000,wamv3/gps_wamv_link,0,0,-33.7243280283,150.673686115,-0.159801516275,0,0,0,0,0,0,0,0,0,2,3
860400000000,12899,860400000000,wamv3/gps_wamv_link,0,0,-33.7243282564,150.673685994,-0.161627017211,0,0,0,0,0,0,0,0,0,2,3
860467000000,12900,860467000000,wamv3/gps_wamv_link,0,0,-33.7243284819,150.673685888,-0.162282131544,0,0,0,0,0,0,0,0,0,2,3
860533000000,12901,860533000000,wamv3/gps_wamv_link,0,0,-33.7243287012,150.673685799,-0.1616159551,0,0,0,0,0,0,0,0,0,2,3
860600000000,12902,860600000000,wamv3/gps_wamv_link,0,0,-33.7243289208,150.67368572,-0.159904846106,0,0,0,0,0,0,0,0,0,2,3
860667000000,12903,860667000000,wamv3/gps_wamv_link,0,0,-33.724329138,150.673685645,-0.157695055085,0,0,0,0,0,0,0,0,0,2,3
860733000000,12904,860733000000,wamv3/gps_wamv_link,0,0,-33.724329352,150.673685566,-0.155511039143,0,0,0,0,0,0,0,0,0,2,3
860800000000,12905,860800000000,wamv3/gps_wamv_link,0,0,-33.7243295726,150.673685475,-0.153597562425,0,0,0,0,0,0,0,0,0,2,3
860867000000,12906,860867000000,wamv3/gps_wamv_link,0,0,-33.7243297993,150.673685371,-0.152177434122,0,0,0,0,0,0,0,0,0,2,3
860933000000,12907,860933000000,wamv3/gps_wamv_link,0,0,-33.7243300295,150.673685259,-0.151351829331,0,0,0,0,0,0,0,0,0,2,3
861000000000,12908,861000000000,wamv3/gps_wamv_link,0,0,-33.7243302677,150.673685143,-0.150993081358,0,0,0,0,0,0,0,0,0,2,3
861067000000,12909,861067000000,wamv3/gps_wamv_link,0,0,-33.7243305059,150.673685029,-0.150724520911,0,0,0,0,0,0,0,0,0,2,3
861133000000,12910,861133000000,wamv3/gps_wamv_link,0,0,-33.7243307362,150.673684926,-0.150000163679,0,0,0,0,0,0,0,0,0,2,3
861200000000,12911,861200000000,wamv3/gps_wamv_link,0,0,-33.7243309634,150.673684833,-0.148378663914,0,0,0,0,0,0,0,0,0,2,3
861267000000,12912,861267000000,wamv3/gps_wamv_link,0,0,-33.724331185,150.67368475,-0.14581215358,0,0,0,0,0,0,0,0,0,2,3
861333000000,12913,861333000000,wamv3/gps_wamv_link,0,0,-33.7243314016,150.673684675,-0.142633961032,0,0,0,0,0,0,0,0,0,2,3
861400000000,12914,861400000000,wamv3/gps_wamv_link,0,0,-33.7243316242,150.673684598,-0.139134008305,0,0,0,0,0,0,0,0,0,2,3
861467000000,12915,861467000000,wamv3/gps_wamv_link,0,0,-33.7243318527,150.673684513,-0.135680812851,0,0,0,0,0,0,0,0,0,2,3
861533000000,12916,861533000000,wamv3/gps_wamv_link,0,0,-33.7243320843,150.673684418,-0.132563889192,0,0,0,0,0,0,0,0,0,2,3
861600000000,12917,861600000000,wamv3/gps_wamv_link,0,0,-33.7243323243,150.673684307,-0.129887402878,0,0,0,0,0,0,0,0,0,2,3
861667000000,12918,861667000000,wamv3/gps_wamv_link,0,0,-33.7243325669,150.673684187,-0.127772947337,0,0,0,0,0,0,0,0,0,2,3
861733000000,12919,861733000000,wamv3/gps_wamv_link,0,0,-33.7243328059,150.673684067,-0.126024343897,0,0,0,0,0,0,0,0,0,2,3
861800000000,12920,861800000000,wamv3/gps_wamv_link,0,0,-33.7243330469,150.673683951,-0.124064697943,0,0,0,0,0,0,0,0,0,2,3
861867000000,12921,861867000000,wamv3/gps_wamv_link,0,0,-33.7243332848,150.673683849,-0.121330299975,0,0,0,0,0,0,0,0,0,2,3
861933000000,12922,861933000000,wamv3/gps_wamv_link,0,0,-33.7243335152,150.673683761,-0.117574240691,0,0,0,0,0,0,0,0,0,2,3
862000000000,12923,862000000000,wamv3/gps_wamv_link,0,0,-33.724333745,150.673683682,-0.112802349551,0,0,0,0,0,0,0,0,0,2,3
862067000000,12924,862067000000,wamv3/gps_wamv_link,0,0,-33.7243339719,150.673683606,-0.107495784849,0,0,0,0,0,0,0,0,0,2,3
862133000000,12925,862133000000,wamv3/gps_wamv_link,0,0,-33.7243341952,150.673683528,-0.102237319927,0,0,0,0,0,0,0,0,0,2,3
862200000000,12926,862200000000,wamv3/gps_wamv_link,0,0,-33.7243344255,150.673683439,-0.09728879951,0,0,0,0,0,0,0,0,0,2,3
862267000000,12927,862267000000,wamv3/gps_wamv_link,0,0,-33.724334662,150.67368334,-0.0930542017565,0,0,0,0,0,0,0,0,0,2,3
862333000000,12928,862333000000,wamv3/gps_wamv_link,0,0,-33.7243349012,150.673683235,-0.089766966901,0,0,0,0,0,0,0,0,0,2,3
862400000000,12929,862400000000,wamv3/gps_wamv_link,0,0,-33.7243351475,150.673683127,-0.0872762357816,0,0,0,0,0,0,0,0,0,2,3
862467000000,12930,862467000000,wamv3/gps_wamv_link,0,0,-33.7243353925,150.673683022,-0.0852740714469,0,0,0,0,0,0,0,0,0,2,3
862533000000,12931,862533000000,wamv3/gps_wamv_link,0,0,-33.7243356283,150.673682927,-0.0832562639485,0,0,0,0,0,0,0,0,0,2,3
862600000000,12932,862600000000,wamv3/gps_wamv_link,0,0,-33.72433586,150.673682842,-0.0807711855786,0,0,0,0,0,0,0,0,0,2,3
862667000000,12933,862667000000,wamv3/gps_wamv_link,0,0,-33.7243360853,150.673682768,-0.0778334592759,0,0,0,0,0,0,0,0,0,2,3
862733000000,12934,862733000000,wamv3/gps_wamv_link,0,0,-33.7243363047,150.673682703,-0.0748289969649,0,0,0,0,0,0,0,0,0,2,3
862800000000,12935,862800000000,wamv3/gps_wamv_link,0,0,-33.724336529,150.673682638,-0.0721253980758,0,0,0,0,0,0,0,0,0,2,3
862867000000,12936,862867000000,wamv3/gps_wamv_link,0,0,-33.7243367582,150.673682568,-0.070146988304,0,0,0,0,0,0,0,0,0,2,3
862933000000,12937,862933000000,wamv3/gps_wamv_link,0,0,-33.7243369896,150.673682488,-0.0691481945683,0,0,0,0,0,0,0,0,0,2,3
863000000000,12938,863000000000,wamv3/gps_wamv_link,0,0,-33.7243372291,150.673682394,-0.0692533149417,0,0,0,0,0,0,0,0,0,2,3
863067000000,12939,863067000000,wamv3/gps_wamv_link,0,0,-33.7243374713,150.67368229,-0.0705092154458,0,0,0,0,0,0,0,0,0,2,3
863133000000,12940,863133000000,wamv3/gps_wamv_link,0,0,-33.7243377105,150.673682186,-0.0726441653744,0,0,0,0,0,0,0,0,0,2,3
863200000000,12941,863200000000,wamv3/gps_wamv_link,0,0,-33.7243379519,150.673682084,-0.0752165143618,0,0,0,0,0,0,0,0,0,2,3
863267000000,12942,863267000000,wamv3/gps_wamv_link,0,0,-33.7243381904,150.673681994,-0.0776141691157,0,0,0,0,0,0,0,0,0,2,3
863333000000,12943,863333000000,wamv3/gps_wamv_link,0,0,-33.7243384212,150.673681916,-0.0794555521338,0,0,0,0,0,0,0,0,0,2,3
863400000000,12944,863400000000,wamv3/gps_wamv_link,0,0,-33.724338651,150.673681844,-0.0808113336331,0,0,0,0,0,0,0,0,0,2,3
863467000000,12945,863467000000,wamv3/gps_wamv_link,0,0,-33.7243388777,150.673681774,-0.0819413438294,0,0,0,0,0,0,0,0,0,2,3
863533000000,12946,863533000000,wamv3/gps_wamv_link,0,0,-33.7243391011,150.6736817,-0.0831888251121,0,0,0,0,0,0,0,0,0,2,3
863600000000,12947,863600000000,wamv3/gps_wamv_link,0,0,-33.724339332,150.673681616,-0.08489307492,0,0,0,0,0,0,0,0,0,2,3
863667000000,12948,863667000000,wamv3/gps_wamv_link,0,0,-33.7243395698,150.673681521,-0.0872614375178,0,0,0,0,0,0,0,0,0,2,3
863733000000,12949,863733000000,wamv3/gps_wamv_link,0,0,-33.7243398109,150.67368142,-0.0903585940339,0,0,0,0,0,0,0,0,0,2,3
863800000000,12950,863800000000,wamv3/gps_wamv_link,0,0,-33.7243400596,150.673681314,-0.0941847953437,0,0,0,0,0,0,0,0,0,2,3
863867000000,12951,863867000000,wamv3/gps_wamv_link,0,0,-33.7243403073,150.67368121,-0.0983099582921,0,0,0,0,0,0,0,0,0,2,3
863933000000,12952,863933000000,wamv3/gps_wamv_link,0,0,-33.7243405454,150.673681115,-0.102107556907,0,0,0,0,0,0,0,0,0,2,3
864000000000,12953,864000000000,wamv3/gps_wamv_link,0,0,-33.724340779,150.673681028,-0.105233226801,0,0,0,0,0,0,0,0,0,2,3
864067000000,12954,864067000000,wamv3/gps_wamv_link,0,0,-33.7243410053,150.673680952,-0.107520257018,0,0,0,0,0,0,0,0,0,2,3
864133000000,12955,864133000000,wamv3/gps_wamv_link,0,0,-33.7243412246,150.673680884,-0.109213543839,0,0,0,0,0,0,0,0,0,2,3
864200000000,12956,864200000000,wamv3/gps_wamv_link,0,0,-33.7243414478,150.673680819,-0.110800117293,0,0,0,0,0,0,0,0,0,2,3
864267000000,12957,864267000000,wamv3/gps_wamv_link,0,0,-33.7243416749,150.67368075,-0.112651190865,0,0,0,0,0,0,0,0,0,2,3
864333000000,12958,864333000000,wamv3/gps_wamv_link,0,0,-33.7243419036,150.673680674,-0.115003056744,0,0,0,0,0,0,0,0,0,2,3
864400000000,12959,864400000000,wamv3/gps_wamv_link,0,0,-33.72434214,150.673680586,-0.118092153495,0,0,0,0,0,0,0,0,0,2,3
864467000000,12960,864467000000,wamv3/gps_wamv_link,0,0,-33.7243423786,150.673680491,-0.121918065222,0,0,0,0,0,0,0,0,0,2,3
864533000000,12961,864533000000,wamv3/gps_wamv_link,0,0,-33.7243426137,150.673680395,-0.126216173967,0,0,0,0,0,0,0,0,0,2,3
864600000000,12962,864600000000,wamv3/gps_wamv_link,0,0,-33.7243428502,150.673680302,-0.130685068936,0,0,0,0,0,0,0,0,0,2,3
864667000000,12963,864667000000,wamv3/gps_wamv_link,0,0,-33.724343083,150.673680219,-0.134759986813,0,0,0,0,0,0,0,0,0,2,3
864733000000,12964,864733000000,wamv3/gps_wamv_link,0,0,-33.7243433075,150.673680149,-0.138090664226,0,0,0,0,0,0,0,0,0,2,3
864800000000,12965,864800000000,wamv3/gps_wamv_link,0,0,-33.7243435305,150.673680086,-0.140802351728,0,0,0,0,0,0,0,0,0,2,3
864867000000,12966,864867000000,wamv3/gps_wamv_link,0,0,-33.7243437501,150.673680024,-0.143105774425,0,0,0,0,0,0,0,0,0,2,3
864933000000,12967,864933000000,wamv3/gps_wamv_link,0,0,-33.7243439663,150.673679959,-0.145285045204,0,0,0,0,0,0,0,0,0,2,3
865000000000,12968,865000000000,wamv3/gps_wamv_link,0,0,-33.7243441897,150.673679885,-0.147651196799,0,0,0,0,0,0,0,0,0,2,3
865067000000,12969,865067000000,wamv3/gps_wamv_link,0,0,-33.72434442,150.6736798,-0.150341516979,0,0,0,0,0,0,0,0,0,2,3
865133000000,12970,865133000000,wamv3/gps_wamv_link,0,0,-33.724344654,150.673679708,-0.153393926119,0,0,0,0,0,0,0,0,0,2,3
865200000000,12971,865200000000,wamv3/gps_wamv_link,0,0,-33.7243448963,150.67367961,-0.156818446748,0,0,0,0,0,0,0,0,0,2,3
865267000000,12972,865267000000,wamv3/gps_wamv_link,0,0,-33.7243451385,150.673679512,-0.160225379281,0,0,0,0,0,0,0,0,0,2,3
865333000000,12973,865333000000,wamv3/gps_wamv_link,0,0,-33.7243453725,150.673679421,-0.163033539423,0,0,0,0,0,0,0,0,0,2,3
865400000000,12974,865400000000,wamv3/gps_wamv_link,0,0,-33.7243456028,150.673679336,-0.164835824686,0,0,0,0,0,0,0,0,0,2,3
865467000000,12975,865467000000,wamv3/gps_wamv_link,0,0,-33.7243458263,150.673679259,-0.165379161371,0,0,0,0,0,0,0,0,0,2,3
865533000000,12976,865533000000,wamv3/gps_wamv_link,0,0,-33.7243460426,150.673679189,-0.164825556961,0,0,0,0,0,0,0,0,0,2,3
865600000000,12977,865600000000,wamv3/gps_wamv_link,0,0,-33.7243462625,150.67367912,-0.163508937111,0,0,0,0,0,0,0,0,0,2,3
865667000000,12978,865667000000,wamv3/gps_wamv_link,0,0,-33.7243464859,150.673679049,-0.161809366828,0,0,0,0,0,0,0,0,0,2,3
865733000000,12979,865733000000,wamv3/gps_wamv_link,0,0,-33.7243467112,150.673678971,-0.160062139092,0,0,0,0,0,0,0,0,0,2,3
865800000000,12980,865800000000,wamv3/gps_wamv_link,0,0,-33.7243469445,150.673678883,-0.158431497156,0,0,0,0,0,0,0,0,0,2,3
865867000000,12981,865867000000,wamv3/gps_wamv_link,0,0,-33.7243471808,150.673678788,-0.157027907726,0,0,0,0,0,0,0,0,0,2,3
865933000000,12982,865933000000,wamv3/gps_wamv_link,0,0,-33.7243474136,150.673678693,-0.15573296274,0,0,0,0,0,0,0,0,0,2,3
866000000000,12983,866000000000,wamv3/gps_wamv_link,0,0,-33.7243476475,150.673678601,-0.154145605328,0,0,0,0,0,0,0,0,0,2,3
866067000000,12984,866067000000,wamv3/gps_wamv_link,0,0,-33.7243478765,150.67367852,-0.151857070092,0,0,0,0,0,0,0,0,0,2,3
866133000000,12985,866133000000,wamv3/gps_wamv_link,0,0,-33.7243480962,150.67367845,-0.148684839169,0,0,0,0,0,0,0,0,0,2,3
866200000000,12986,866200000000,wamv3/gps_wamv_link,0,0,-33.7243483134,150.673678387,-0.144625974087,0,0,0,0,0,0,0,0,0,2,3
866267000000,12987,866267000000,wamv3/gps_wamv_link,0,0,-33.7243485267,150.673678329,-0.140077917108,0,0,0,0,0,0,0,0,0,2,3
866333000000,12988,866333000000,wamv3/gps_wamv_link,0,0,-33.7243487365,150.67367827,-0.135535019508,0,0,0,0,0,0,0,0,0,2,3
866400000000,12989,866400000000,wamv3/gps_wamv_link,0,0,-33.7243489529,150.673678203,-0.131206739347,0,0,0,0,0,0,0,0,0,2,3
866467000000,12990,866467000000,wamv3/gps_wamv_link,0,0,-33.7243491754,150.673678129,-0.127407663656,0,0,0,0,0,0,0,0,0,2,3
866533000000,12991,866533000000,wamv3/gps_wamv_link,0,0,-33.7243494007,150.673678049,-0.124318843532,0,0,0,0,0,0,0,0,0,2,3
866600000000,12992,866600000000,wamv3/gps_wamv_link,0,0,-33.7243496333,150.673677964,-0.121825114427,0,0,0,0,0,0,0,0,0,2,3
866667000000,12993,866667000000,wamv3/gps_wamv_link,0,0,-33.7243498654,150.673677879,-0.119729354068,0,0,0,0,0,0,0,0,0,2,3
866733000000,12994,866733000000,wamv3/gps_wamv_link,0,0,-33.7243500898,150.673677799,-0.117642352164,0,0,0,0,0,0,0,0,0,2,3
866800000000,12995,866800000000,wamv3/gps_wamv_link,0,0,-33.7243503114,150.673677725,-0.115109765295,0,0,0,0,0,0,0,0,0,2,3
866867000000,12996,866867000000,wamv3/gps_wamv_link,0,0,-33.724350527,150.673677658,-0.111999108232,0,0,0,0,0,0,0,0,0,2,3
866933000000,12997,866933000000,wamv3/gps_wamv_link,0,0,-33.7243507361,150.673677598,-0.10848931318,0,0,0,0,0,0,0,0,0,2,3
867000000000,12998,867000000000,wamv3/gps_wamv_link,0,0,-33.7243509485,150.673677538,-0.104762955356,0,0,0,0,0,0,0,0,0,2,3
867067000000,12999,867067000000,wamv3/gps_wamv_link,0,0,-33.7243511644,150.673677474,-0.101178729053,0,0,0,0,0,0,0,0,0,2,3
867133000000,13000,867133000000,wamv3/gps_wamv_link,0,0,-33.7243513821,150.673677403,-0.0980310342476,0,0,0,0,0,0,0,0,0,2,3
867200000000,13001,867200000000,wamv3/gps_wamv_link,0,0,-33.7243516085,150.673677321,-0.095404683257,0,0,0,0,0,0,0,0,0,2,3
867267000000,13002,867267000000,wamv3/gps_wamv_link,0,0,-33.724351839,150.673677231,-0.0934203882163,0,0,0,0,0,0,0,0,0,2,3
867333000000,13003,867333000000,wamv3/gps_wamv_link,0,0,-33.7243520676,150.673677141,-0.0919611288732,0,0,0,0,0,0,0,0,0,2,3
867400000000,13004,867400000000,wamv3/gps_wamv_link,0,0,-33.7243522981,150.673677052,-0.0906206660393,0,0,0,0,0,0,0,0,0,2,3
867467000000,13005,867467000000,wamv3/gps_wamv_link,0,0,-33.7243525243,150.673676972,-0.0889687399605,0,0,0,0,0,0,0,0,0,2,3
867533000000,13006,867533000000,wamv3/gps_wamv_link,0,0,-33.7243527411,150.673676901,-0.0867403917048,0,0,0,0,0,0,0,0,0,2,3
867600000000,13007,867600000000,wamv3/gps_wamv_link,0,0,-33.7243529549,150.673676837,-0.0838752356066,0,0,0,0,0,0,0,0,0,2,3
867667000000,13008,867667000000,wamv3/gps_wamv_link,0,0,-33.7243531645,150.673676776,-0.0806895726257,0,0,0,0,0,0,0,0,0,2,3
867733000000,13009,867733000000,wamv3/gps_wamv_link,0,0,-33.7243533706,150.673676715,-0.0776314458996,0,0,0,0,0,0,0,0,0,2,3
867800000000,13010,867800000000,wamv3/gps_wamv_link,0,0,-33.7243535833,150.673676648,-0.0749726414625,0,0,0,0,0,0,0,0,0,2,3
867867000000,13011,867867000000,wamv3/gps_wamv_link,0,0,-33.7243538018,150.673676576,-0.0730354852594,0,0,0,0,0,0,0,0,0,2,3
867933000000,13012,867933000000,wamv3/gps_wamv_link,0,0,-33.7243540227,150.673676499,-0.0719887858336,0,0,0,0,0,0,0,0,0,2,3
868000000000,13013,868000000000,wamv3/gps_wamv_link,0,0,-33.7243542498,150.673676418,-0.0717951868627,0,0,0,0,0,0,0,0,0,2,3
868067000000,13014,868067000000,wamv3/gps_wamv_link,0,0,-33.7243544757,150.673676337,-0.0722570516702,0,0,0,0,0,0,0,0,0,2,3
868133000000,13015,868133000000,wamv3/gps_wamv_link,0,0,-33.7243546933,150.673676261,-0.0729870308728,0,0,0,0,0,0,0,0,0,2,3
868200000000,13016,868200000000,wamv3/gps_wamv_link,0,0,-33.7243549075,150.673676192,-0.073667985564,0,0,0,0,0,0,0,0,0,2,3
868267000000,13017,868267000000,wamv3/gps_wamv_link,0,0,-33.7243551155,150.673676131,-0.0741692762965,0,0,0,0,0,0,0,0,0,2,3
868333000000,13018,868333000000,wamv3/gps_wamv_link,0,0,-33.724355317,150.673676077,-0.0746327456701,0,0,0,0,0,0,0,0,0,2,3
868400000000,13019,868400000000,wamv3/gps_wamv_link,0,0,-33.7243555212,150.673676025,-0.0753709644199,0,0,0,0,0,0,0,0,0,2,3
868467000000,13020,868467000000,wamv3/gps_wamv_link,0,0,-33.724355728,150.673675969,-0.076671732747,0,0,0,0,0,0,0,0,0,2,3
868533000000,13021,868533000000,wamv3/gps_wamv_link,0,0,-33.724355936,150.673675907,-0.0787050267554,0,0,0,0,0,0,0,0,0,2,3
868600000000,13022,868600000000,wamv3/gps_wamv_link,0,0,-33.7243561521,150.673675834,-0.0816521256263,0,0,0,0,0,0,0,0,0,2,3
868667000000,13023,868667000000,wamv3/gps_wamv_link,0,0,-33.7243563724,150.673675754,-0.085505661362,0,0,0,0,0,0,0,0,0,2,3
868733000000,13024,868733000000,wamv3/gps_wamv_link,0,0,-33.7243565916,150.673675671,-0.0900324414977,0,0,0,0,0,0,0,0,0,2,3
868800000000,13025,868800000000,wamv3/gps_wamv_link,0,0,-33.7243568137,150.673675589,-0.0950031080111,0,0,0,0,0,0,0,0,0,2,3
868867000000,13026,868867000000,wamv3/gps_wamv_link,0,0,-33.7243570326,150.673675513,-0.0998779868657,0,0,0,0,0,0,0,0,0,2,3
868933000000,13027,868933000000,wamv3/gps_wamv_link,0,0,-33.724357243,150.673675446,-0.104220266613,0,0,0,0,0,0,0,0,0,2,3
869000000000,13028,869000000000,wamv3/gps_wamv_link,0,0,-33.7243574509,150.673675382,-0.108040628587,0,0,0,0,0,0,0,0,0,2,3
869067000000,13029,869067000000,wamv3/gps_wamv_link,0,0,-33.7243576549,150.67367532,-0.111397222692,0,0,0,0,0,0,0,0,0,2,3
869133000000,13030,869133000000,wamv3/gps_wamv_link,0,0,-33.7243578555,150.673675256,-0.114499367387,0,0,0,0,0,0,0,0,0,2,3
869200000000,13031,869200000000,wamv3/gps_wamv_link,0,0,-33.7243580627,150.673675187,-0.117694319947,0,0,0,0,0,0,0,0,0,2,3
869267000000,13032,869267000000,wamv3/gps_wamv_link,0,0,-33.7243582763,150.673675111,-0.121131667365,0,0,0,0,0,0,0,0,0,2,3
869333000000,13033,869333000000,wamv3/gps_wamv_link,0,0,-33.724358493,150.67367503,-0.124861528418,0,0,0,0,0,0,0,0,0,2,3
869400000000,13034,869400000000,wamv3/gps_wamv_link,0,0,-33.7243587166,150.673674945,-0.128959683055,0,0,0,0,0,0,0,0,0,2,3
869467000000,13035,869467000000,wamv3/gps_wamv_link,0,0,-33.7243589396,150.67367486,-0.133129113998,0,0,0,0,0,0,0,0,0,2,3
869533000000,13036,869533000000,wamv3/gps_wamv_link,0,0,-33.7243591546,150.673674779,-0.136913725718,0,0,0,0,0,0,0,0,0,2,3
869600000000,13037,869600000000,wamv3/gps_wamv_link,0,0,-33.724359366,150.673674703,-0.140049192707,0,0,0,0,0,0,0,0,0,2,3
869667000000,13038,869667000000,wamv3/gps_wamv_link,0,0,-33.7243595706,150.673674634,-0.142306641233,0,0,0,0,0,0,0,0,0,2,3
869733000000,13039,869733000000,wamv3/gps_wamv_link,0,0,-33.7243597679,150.673674573,-0.14378560759,0,0,0,0,0,0,0,0,0,2,3
869800000000,13040,869800000000,wamv3/gps_wamv_link,0,0,-33.7243599671,150.673674515,-0.144835850095,0,0,0,0,0,0,0,0,0,2,3
869867000000,13041,869867000000,wamv3/gps_wamv_link,0,0,-33.7243601682,150.673674456,-0.145773436232,0,0,0,0,0,0,0,0,0,2,3
869933000000,13042,869933000000,wamv3/gps_wamv_link,0,0,-33.72436037,150.673674393,-0.146855022135,0,0,0,0,0,0,0,0,0,2,3
870000000000,13043,870000000000,wamv3/gps_wamv_link,0,0,-33.7243605792,150.673674321,-0.148291704613,0,0,0,0,0,0,0,0,0,2,3
870067000000,13044,870067000000,wamv3/gps_wamv_link,0,0,-33.7243607917,150.673674243,-0.150136083518,0,0,0,0,0,0,0,0,0,2,3
870133000000,13045,870133000000,wamv3/gps_wamv_link,0,0,-33.7243610026,150.673674164,-0.152257219982,0,0,0,0,0,0,0,0,0,2,3
870200000000,13046,870200000000,wamv3/gps_wamv_link,0,0,-33.7243612157,150.673674085,-0.154441667788,0,0,0,0,0,0,0,0,0,2,3
870267000000,13047,870267000000,wamv3/gps_wamv_link,0,0,-33.7243614254,150.673674013,-0.156287211581,0,0,0,0,0,0,0,0,0,2,3
870333000000,13048,870333000000,wamv3/gps_wamv_link,0,0,-33.7243616269,150.673673949,-0.157496032948,0,0,0,0,0,0,0,0,0,2,3
870400000000,13049,870400000000,wamv3/gps_wamv_link,0,0,-33.724361826,150.67367389,-0.158039544508,0,0,0,0,0,0,0,0,0,2,3
870467000000,13050,870467000000,wamv3/gps_wamv_link,0,0,-33.7243620215,150.673673833,-0.158039822077,0,0,0,0,0,0,0,0,0,2,3
870533000000,13051,870533000000,wamv3/gps_wamv_link,0,0,-33.7243622136,150.673673774,-0.157746529575,0,0,0,0,0,0,0,0,0,2,3
870600000000,13052,870600000000,wamv3/gps_wamv_link,0,0,-33.7243624121,150.67367371,-0.157379101402,0,0,0,0,0,0,0,0,0,2,3
870667000000,13053,870667000000,wamv3/gps_wamv_link,0,0,-33.7243626167,150.673673639,-0.157113166543,0,0,0,0,0,0,0,0,0,2,3
870733000000,13054,870733000000,wamv3/gps_wamv_link,0,0,-33.7243628249,150.673673561,-0.157044606767,0,0,0,0,0,0,0,0,0,2,3
870800000000,13055,870800000000,wamv3/gps_wamv_link,0,0,-33.7243630409,150.673673475,-0.157144191,0,0,0,0,0,0,0,0,0,2,3
870867000000,13056,870867000000,wamv3/gps_wamv_link,0,0,-33.7243632582,150.673673384,-0.157206351855,0,0,0,0,0,0,0,0,0,2,3
870933000000,13057,870933000000,wamv3/gps_wamv_link,0,0,-33.7243634695,150.673673293,-0.156870187034,0,0,0,0,0,0,0,0,0,2,3
871000000000,13058,871000000000,wamv3/gps_wamv_link,0,0,-33.724363679,150.673673202,-0.155743854362,0,0,0,0,0,0,0,0,0,2,3
871067000000,13059,871067000000,wamv3/gps_wamv_link,0,0,-33.7243638829,150.673673114,-0.153613139747,0,0,0,0,0,0,0,0,0,2,3
871133000000,13060,871133000000,wamv3/gps_wamv_link,0,0,-33.7243640799,150.67367303,-0.150577139598,0,0,0,0,0,0,0,0,0,2,3
871200000000,13061,871200000000,wamv3/gps_wamv_link,0,0,-33.7243642788,150.673672943,-0.146791336953,0,0,0,0,0,0,0,0,0,2,3
871267000000,13062,871267000000,wamv3/gps_wamv_link,0,0,-33.7243644798,150.673672853,-0.142619020157,0,0,0,0,0,0,0,0,0,2,3
871333000000,13063,871333000000,wamv3/gps_wamv_link,0,0,-33.724364682,150.673672756,-0.138420404261,0,0,0,0,0,0,0,0,0,2,3
871400000000,13064,871400000000,wamv3/gps_wamv_link,0,0,-33.7243648922,150.673672648,-0.13429264702,0,0,0,0,0,0,0,0,0,2,3
871467000000,13065,871467000000,wamv3/gps_wamv_link,0,0,-33.7243651066,150.673672533,-0.130421880511,0,0,0,0,0,0,0,0,0,2,3
871533000000,13066,871533000000,wamv3/gps_wamv_link,0,0,-33.7243653196,150.673672415,-0.126825721913,0,0,0,0,0,0,0,0,0,2,3
871600000000,13067,871600000000,wamv3/gps_wamv_link,0,0,-33.7243655345,150.673672295,-0.123188811929,0,0,0,0,0,0,0,0,0,2,3
871667000000,13068,871667000000,wamv3/gps_wamv_link,0,0,-33.7243657453,150.673672178,-0.119276670007,0,0,0,0,0,0,0,0,0,2,3
871733000000,13069,871733000000,wamv3/gps_wamv_link,0,0,-33.7243659473,150.673672067,-0.11495963164,0,0,0,0,0,0,0,0,0,2,3
871800000000,13070,871800000000,wamv3/gps_wamv_link,0,0,-33.7243661468,150.673671959,-0.110130766488,0,0,0,0,0,0,0,0,0,2,3
871867000000,13071,871867000000,wamv3/gps_wamv_link,0,0,-33.7243663427,150.673671851,-0.105093678833,0,0,0,0,0,0,0,0,0,2,3
871933000000,13072,871933000000,wamv3/gps_wamv_link,0,0,-33.7243665353,150.673671743,-0.10025946521,0,0,0,0,0,0,0,0,0,2,3
872000000000,13073,872000000000,wamv3/gps_wamv_link,0,0,-33.7243667339,150.673671628,-0.0957900386917,0,0,0,0,0,0,0,0,0,2,3
872067000000,13074,872067000000,wamv3/gps_wamv_link,0,0,-33.7243669378,150.673671505,-0.0919886719202,0,0,0,0,0,0,0,0,0,2,3
872133000000,13075,872133000000,wamv3/gps_wamv_link,0,0,-33.7243671441,150.673671376,-0.0890276580722,0,0,0,0,0,0,0,0,0,2,3
872200000000,13076,872200000000,wamv3/gps_wamv_link,0,0,-33.724367357,150.673671237,-0.0868295855926,0,0,0,0,0,0,0,0,0,2,3
872267000000,13077,872267000000,wamv3/gps_wamv_link,0,0,-33.7243675706,150.673671095,-0.0852938243775,0,0,0,0,0,0,0,0,0,2,3
872333000000,13078,872333000000,wamv3/gps_wamv_link,0,0,-33.7243677787,150.673670954,-0.0841363849952,0,0,0,0,0,0,0,0,0,2,3
872400000000,13079,872400000000,wamv3/gps_wamv_link,0,0,-33.7243679856,150.673670813,-0.0829959929588,0,0,0,0,0,0,0,0,0,2,3
872467000000,13080,872467000000,wamv3/gps_wamv_link,0,0,-33.7243681877,150.673670676,-0.0816878571167,0,0,0,0,0,0,0,0,0,2,3
872533000000,13081,872533000000,wamv3/gps_wamv_link,0,0,-33.7243683835,150.673670543,-0.0802366465365,0,0,0,0,0,0,0,0,0,2,3
872600000000,13082,872600000000,wamv3/gps_wamv_link,0,0,-33.7243685813,150.673670407,-0.0787595895228,0,0,0,0,0,0,0,0,0,2,3
872667000000,13083,872667000000,wamv3/gps_wamv_link,0,0,-33.7243687807,150.673670266,-0.0774967201124,0,0,0,0,0,0,0,0,0,2,3
872733000000,13084,872733000000,wamv3/gps_wamv_link,0,0,-33.7243689811,150.673670119,-0.0766540188893,0,0,0,0,0,0,0,0,0,2,3
872800000000,13085,872800000000,wamv3/gps_wamv_link,0,0,-33.7243691895,150.67366996,-0.0763490313831,0,0,0,0,0,0,0,0,0,2,3
872867000000,13086,872867000000,wamv3/gps_wamv_link,0,0,-33.7243694027,150.673669794,-0.0766595586974,0,0,0,0,0,0,0,0,0,2,3
872933000000,13087,872933000000,wamv3/gps_wamv_link,0,0,-33.724369615,150.673669627,-0.0774921885359,0,0,0,0,0,0,0,0,0,2,3
873000000000,13088,873000000000,wamv3/gps_wamv_link,0,0,-33.7243698296,150.67366946,-0.0786294527564,0,0,0,0,0,0,0,0,0,2,3
873067000000,13089,873067000000,wamv3/gps_wamv_link,0,0,-33.7243700399,150.6736693,-0.0797139027002,0,0,0,0,0,0,0,0,0,2,3
873133000000,13090,873133000000,wamv3/gps_wamv_link,0,0,-33.724370241,150.673669148,-0.0804532627632,0,0,0,0,0,0,0,0,0,2,3
873200000000,13091,873200000000,wamv3/gps_wamv_link,0,0,-33.7243704386,150.673669001,-0.080794282268,0,0,0,0,0,0,0,0,0,2,3
873267000000,13092,873267000000,wamv3/gps_wamv_link,0,0,-33.7243706318,150.673668859,-0.0808763026835,0,0,0,0,0,0,0,0,0,2,3
873333000000,13093,873333000000,wamv3/gps_wamv_link,0,0,-33.7243708211,150.673668721,-0.0809851817163,0,0,0,0,0,0,0,0,0,2,3
873400000000,13094,873400000000,wamv3/gps_wamv_link,0,0,-33.7243710156,150.673668581,-0.0814225493278,0,0,0,0,0,0,0,0,0,2,3
873467000000,13095,873467000000,wamv3/gps_wamv_link,0,0,-33.7243712144,150.673668438,-0.0824292872097,0,0,0,0,0,0,0,0,0,2,3
873533000000,13096,873533000000,wamv3/gps_wamv_link,0,0,-33.7243714142,150.673668293,-0.0841230118267,0,0,0,0,0,0,0,0,0,2,3
873600000000,13097,873600000000,wamv3/gps_wamv_link,0,0,-33.7243716192,150.673668144,-0.0865773508893,0,0,0,0,0,0,0,0,0,2,3
873667000000,13098,873667000000,wamv3/gps_wamv_link,0,0,-33.7243718234,150.673667994,-0.0896337841879,0,0,0,0,0,0,0,0,0,2,3
873733000000,13099,873733000000,wamv3/gps_wamv_link,0,0,-33.7243720211,150.67366785,-0.0929644956484,0,0,0,0,0,0,0,0,0,2,3
873800000000,13100,873800000000,wamv3/gps_wamv_link,0,0,-33.724372217,150.67366771,-0.0963745472158,0,0,0,0,0,0,0,0,0,2,3
873867000000,13101,873867000000,wamv3/gps_wamv_link,0,0,-33.724372408,150.673667578,-0.0996382238869,0,0,0,0,0,0,0,0,0,2,3
873933000000,13102,873933000000,wamv3/gps_wamv_link,0,0,-33.7243725927,150.673667454,-0.102728363277,0,0,0,0,0,0,0,0,0,2,3
874000000000,13103,874000000000,wamv3/gps_wamv_link,0,0,-33.7243727785,150.673667331,-0.105903732077,0,0,0,0,0,0,0,0,0,2,3
874067000000,13104,874067000000,wamv3/gps_wamv_link,0,0,-33.7243729651,150.673667207,-0.109321781388,0,0,0,0,0,0,0,0,0,2,3
874133000000,13105,874133000000,wamv3/gps_wamv_link,0,0,-33.7243731518,150.673667079,-0.113083507258,0,0,0,0,0,0,0,0,0,2,3
874200000000,13106,874200000000,wamv3/gps_wamv_link,0,0,-33.7243733455,150.673666943,-0.117394699723,0,0,0,0,0,0,0,0,0,2,3
874267000000,13107,874267000000,wamv3/gps_wamv_link,0,0,-33.7243735436,150.673666802,-0.122208668019,0,0,0,0,0,0,0,0,0,2,3
874333000000,13108,874333000000,wamv3/gps_wamv_link,0,0,-33.7243737418,150.67366666,-0.127323442343,0,0,0,0,0,0,0,0,0,2,3
874400000000,13109,874400000000,wamv3/gps_wamv_link,0,0,-33.7243739433,150.673666517,-0.132618489935,0,0,0,0,0,0,0,0,0,2,3
874467000000,13110,874467000000,wamv3/gps_wamv_link,0,0,-33.7243741423,150.673666379,-0.137638853293,0,0,0,0,0,0,0,0,0,2,3
874533000000,13111,874533000000,wamv3/gps_wamv_link,0,0,-33.7243743336,150.673666248,-0.14198138412,0,0,0,0,0,0,0,0,0,2,3
874600000000,13112,874600000000,wamv3/gps_wamv_link,0,0,-33.7243745224,150.673666119,-0.145606997774,0,0,0,0,0,0,0,0,0,2,3
874667000000,13113,874667000000,wamv3/gps_wamv_link,0,0,-33.7243747074,150.673665993,-0.148481374163,0,0,0,0,0,0,0,0,0,2,3
874733000000,13114,874733000000,wamv3/gps_wamv_link,0,0,-33.7243748889,150.67366587,-0.15075452873,0,0,0,0,0,0,0,0,0,2,3
874800000000,13115,874800000000,wamv3/gps_wamv_link,0,0,-33.7243750757,150.673665743,-0.152715161176,0,0,0,0,0,0,0,0,0,2,3
874867000000,13116,874867000000,wamv3/gps_wamv_link,0,0,-33.7243752671,150.673665613,-0.154517858521,0,0,0,0,0,0,0,0,0,2,3
874933000000,13117,874933000000,wamv3/gps_wamv_link,0,0,-33.7243754603,150.673665481,-0.15626024477,0,0,0,0,0,0,0,0,0,2,3
875000000000,13118,875000000000,wamv3/gps_wamv_link,0,0,-33.7243756592,150.673665344,-0.158010266949,0,0,0,0,0,0,0,0,0,2,3
875067000000,13119,875067000000,wamv3/gps_wamv_link,0,0,-33.7243758578,150.673665207,-0.159611081559,0,0,0,0,0,0,0,0,0,2,3
875133000000,13120,875133000000,wamv3/gps_wamv_link,0,0,-33.7243760503,150.673665074,-0.160793659513,0,0,0,0,0,0,0,0,0,2,3
875200000000,13121,875200000000,wamv3/gps_wamv_link,0,0,-33.7243762409,150.673664945,-0.16132569104,0,0,0,0,0,0,0,0,0,2,3
875267000000,13122,875267000000,wamv3/gps_wamv_link,0,0,-33.7243764262,150.673664824,-0.161039743337,0,0,0,0,0,0,0,0,0,2,3
875333000000,13123,875333000000,wamv3/gps_wamv_link,0,0,-33.7243766048,150.673664711,-0.160015290445,0,0,0,0,0,0,0,0,0,2,3
875400000000,13124,875400000000,wamv3/gps_wamv_link,0,0,-33.724376784,150.673664601,-0.158446968407,0,0,0,0,0,0,0,0,0,2,3
875467000000,13125,875467000000,wamv3/gps_wamv_link,0,0,-33.7243769636,150.673664491,-0.156636970531,0,0,0,0,0,0,0,0,0,2,3
875533000000,13126,875533000000,wamv3/gps_wamv_link,0,0,-33.7243771428,150.67366438,-0.154871867864,0,0,0,0,0,0,0,0,0,2,3
875600000000,13127,875600000000,wamv3/gps_wamv_link,0,0,-33.7243773282,150.673664262,-0.153282728213,0,0,0,0,0,0,0,0,0,2,3
875667000000,13128,875667000000,wamv3/gps_wamv_link,0,0,-33.7243775173,150.67366414,-0.151989235702,0,0,0,0,0,0,0,0,0,2,3
875733000000,13129,875733000000,wamv3/gps_wamv_link,0,0,-33.7243777058,150.673664017,-0.150971821221,0,0,0,0,0,0,0,0,0,2,3
875800000000,13130,875800000000,wamv3/gps_wamv_link,0,0,-33.7243778974,150.673663895,-0.150026590046,0,0,0,0,0,0,0,0,0,2,3
875867000000,13131,875867000000,wamv3/gps_wamv_link,0,0,-33.7243780866,150.673663776,-0.148903722164,0,0,0,0,0,0,0,0,0,2,3
875933000000,13132,875933000000,wamv3/gps_wamv_link,0,0,-33.7243782688,150.673663665,-0.147387994245,0,0,0,0,0,0,0,0,0,2,3
876000000000,13133,876000000000,wamv3/gps_wamv_link,0,0,-33.7243784492,150.673663556,-0.14532878524,0,0,0,0,0,0,0,0,0,2,3
876067000000,13134,876067000000,wamv3/gps_wamv_link,0,0,-33.7243786265,150.67366345,-0.142806115483,0,0,0,0,0,0,0,0,0,2,3
876133000000,13135,876133000000,wamv3/gps_wamv_link,0,0,-33.7243788008,150.673663346,-0.140034792806,0,0,0,0,0,0,0,0,0,2,3
876200000000,13136,876200000000,wamv3/gps_wamv_link,0,0,-33.7243789802,150.673663237,-0.137126567116,0,0,0,0,0,0,0,0,0,2,3
876267000000,13137,876267000000,wamv3/gps_wamv_link,0,0,-33.7243791645,150.673663124,-0.134291133615,0,0,0,0,0,0,0,0,0,2,3
876333000000,13138,876333000000,wamv3/gps_wamv_link,0,0,-33.7243793509,150.673663008,-0.131677686567,0,0,0,0,0,0,0,0,0,2,3
876400000000,13139,876400000000,wamv3/gps_wamv_link,0,0,-33.7243795437,150.673662886,-0.129223957175,0,0,0,0,0,0,0,0,0,2,3
876467000000,13140,876467000000,wamv3/gps_wamv_link,0,0,-33.7243797376,150.673662763,-0.126853191691,0,0,0,0,0,0,0,0,0,2,3
876533000000,13141,876533000000,wamv3/gps_wamv_link,0,0,-33.7243799269,150.673662644,-0.124359459993,0,0,0,0,0,0,0,0,0,2,3
876600000000,13142,876600000000,wamv3/gps_wamv_link,0,0,-33.7243801151,150.673662526,-0.121388692833,0,0,0,0,0,0,0,0,0,2,3
876667000000,13143,876667000000,wamv3/gps_wamv_link,0,0,-33.7243802989,150.673662415,-0.117794941519,0,0,0,0,0,0,0,0,0,2,3
876733000000,13144,876733000000,wamv3/gps_wamv_link,0,0,-33.7243804761,150.67366231,-0.113653759984,0,0,0,0,0,0,0,0,0,2,3
876800000000,13145,876800000000,wamv3/gps_wamv_link,0,0,-33.7243806539,150.673662207,-0.109024623267,0,0,0,0,0,0,0,0,0,2,3
876867000000,13146,876867000000,wamv3/gps_wamv_link,0,0,-33.724380832,150.673662105,-0.104246137772,0,0,0,0,0,0,0,0,0,2,3
876933000000,13147,876933000000,wamv3/gps_wamv_link,0,0,-33.7243810098,150.673662001,-0.0996678919425,0,0,0,0,0,0,0,0,0,2,3
877000000000,13148,877000000000,wamv3/gps_wamv_link,0,0,-33.7243811938,150.673661892,-0.0953764219812,0,0,0,0,0,0,0,0,0,2,3
877067000000,13149,877067000000,wamv3/gps_wamv_link,0,0,-33.7243813812,150.67366178,-0.0915809825566,0,0,0,0,0,0,0,0,0,2,3
877133000000,13150,877133000000,wamv3/gps_wamv_link,0,0,-33.7243815677,150.673661668,-0.0883405670366,0,0,0,0,0,0,0,0,0,2,3
877200000000,13151,877200000000,wamv3/gps_wamv_link,0,0,-33.7243817566,150.673661557,-0.0854363518141,0,0,0,0,0,0,0,0,0,2,3
877267000000,13152,877267000000,wamv3/gps_wamv_link,0,0,-33.7243819423,150.67366145,-0.0827172709494,0,0,0,0,0,0,0,0,0,2,3
877333000000,13153,877333000000,wamv3/gps_wamv_link,0,0,-33.7243821207,150.67366135,-0.0800529480925,0,0,0,0,0,0,0,0,0,2,3
877400000000,13154,877400000000,wamv3/gps_wamv_link,0,0,-33.7243822969,150.673661253,-0.0773303455761,0,0,0,0,0,0,0,0,0,2,3
877467000000,13155,877467000000,wamv3/gps_wamv_link,0,0,-33.72438247,150.673661161,-0.0747193305282,0,0,0,0,0,0,0,0,0,2,3
877533000000,13156,877533000000,wamv3/gps_wamv_link,0,0,-33.7243826398,150.673661071,-0.0724785900283,0,0,0,0,0,0,0,0,0,2,3
877600000000,13157,877600000000,wamv3/gps_wamv_link,0,0,-33.7243828142,150.673660979,-0.0707714844197,0,0,0,0,0,0,0,0,0,2,3
877667000000,13158,877667000000,wamv3/gps_wamv_link,0,0,-33.7243829926,150.673660882,-0.0698148255375,0,0,0,0,0,0,0,0,0,2,3
877733000000,13159,877733000000,wamv3/gps_wamv_link,0,0,-33.7243831725,150.673660783,-0.0697051102656,0,0,0,0,0,0,0,0,0,2,3
877800000000,13160,877800000000,wamv3/gps_wamv_link,0,0,-33.7243833585,150.673660677,-0.0704412637631,0,0,0,0,0,0,0,0,0,2,3
877867000000,13161,877867000000,wamv3/gps_wamv_link,0,0,-33.7243835457,150.67366057,-0.0719060793971,0,0,0,0,0,0,0,0,0,2,3
877933000000,13162,877933000000,wamv3/gps_wamv_link,0,0,-33.7243837292,150.673660465,-0.0738187385581,0,0,0,0,0,0,0,0,0,2,3
878000000000,13163,878000000000,wamv3/gps_wamv_link,0,0,-33.7243839127,150.673660361,-0.0759408715935,0,0,0,0,0,0,0,0,0,2,3
878067000000,13164,878067000000,wamv3/gps_wamv_link,0,0,-33.7243840928,150.673660263,-0.0780119185413,0,0,0,0,0,0,0,0,0,2,3
878133000000,13165,878133000000,wamv3/gps_wamv_link,0,0,-33.724384267,150.673660169,-0.0799190765255,0,0,0,0,0,0,0,0,0,2,3
878200000000,13166,878200000000,wamv3/gps_wamv_link,0,0,-33.7243844422,150.673660076,-0.0817834318151,0,0,0,0,0,0,0,0,0,2,3
878267000000,13167,878267000000,wamv3/gps_wamv_link,0,0,-33.7243846179,150.67365998,-0.0837237752805,0,0,0,0,0,0,0,0,0,2,3
878333000000,13168,878333000000,wamv3/gps_wamv_link,0,0,-33.7243847934,150.673659883,-0.0858665054893,0,0,0,0,0,0,0,0,0,2,3
878400000000,13169,878400000000,wamv3/gps_wamv_link,0,0,-33.7243849758,150.673659779,-0.0884009326413,0,0,0,0,0,0,0,0,0,2,3
878467000000,13170,878467000000,wamv3/gps_wamv_link,0,0,-33.7243851623,150.673659672,-0.0913518955985,0,0,0,0,0,0,0,0,0,2,3
878533000000,13171,878533000000,wamv3/gps_wamv_link,0,0,-33.7243853488,150.673659564,-0.0946129021646,0,0,0,0,0,0,0,0,0,2,3
878600000000,13172,878600000000,wamv3/gps_wamv_link,0,0,-33.7243855382,150.673659456,-0.0981009327783,0,0,0,0,0,0,0,0,0,2,3
878667000000,13173,878667000000,wamv3/gps_wamv_link,0,0,-33.7243857248,150.67365935,-0.101499645508,0,0,0,0,0,0,0,0,0,2,3
878733000000,13174,878733000000,wamv3/gps_wamv_link,0,0,-33.724385904,150.673659251,-0.104521938903,0,0,0,0,0,0,0,0,0,2,3
878800000000,13175,878800000000,wamv3/gps_wamv_link,0,0,-33.7243860808,150.673659154,-0.107153922526,0,0,0,0,0,0,0,0,0,2,3
878867000000,13176,878867000000,wamv3/gps_wamv_link,0,0,-33.7243862539,150.673659061,-0.10941833713,0,0,0,0,0,0,0,0,0,2,3
878933000000,13177,878933000000,wamv3/gps_wamv_link,0,0,-33.7243864233,150.673658972,-0.111484647688,0,0,0,0,0,0,0,0,0,2,3
879000000000,13178,879000000000,wamv3/gps_wamv_link,0,0,-33.7243865968,150.673658881,-0.113650631747,0,0,0,0,0,0,0,0,0,2,3
879067000000,13179,879067000000,wamv3/gps_wamv_link,0,0,-33.7243867736,150.673658788,-0.116087560054,0,0,0,0,0,0,0,0,0,2,3
879133000000,13180,879133000000,wamv3/gps_wamv_link,0,0,-33.7243869512,150.673658694,-0.118879842446,0,0,0,0,0,0,0,0,0,2,3
879200000000,13181,879200000000,wamv3/gps_wamv_link,0,0,-33.7243871341,150.673658594,-0.122143836396,0,0,0,0,0,0,0,0,0,2,3
879267000000,13182,879267000000,wamv3/gps_wamv_link,0,0,-33.7243873175,150.673658493,-0.125753067973,0,0,0,0,0,0,0,0,0,2,3
879333000000,13183,879333000000,wamv3/gps_wamv_link,0,0,-33.7243874967,150.673658395,-0.129453105906,0,0,0,0,0,0,0,0,0,2,3
879400000000,13184,879400000000,wamv3/gps_wamv_link,0,0,-33.7243876756,150.673658299,-0.133117412221,0,0,0,0,0,0,0,0,0,2,3
879467000000,13185,879467000000,wamv3/gps_wamv_link,0,0,-33.7243878509,150.673658207,-0.136508310617,0,0,0,0,0,0,0,0,0,2,3
879533000000,13186,879533000000,wamv3/gps_wamv_link,0,0,-33.7243880206,150.673658122,-0.139532312765,0,0,0,0,0,0,0,0,0,2,3
879600000000,13187,879600000000,wamv3/gps_wamv_link,0,0,-33.724388191,150.673658037,-0.142356391518,0,0,0,0,0,0,0,0,0,2,3
879667000000,13188,879667000000,wamv3/gps_wamv_link,0,0,-33.7243883617,150.673657951,-0.145070195312,0,0,0,0,0,0,0,0,0,2,3
879733000000,13189,879733000000,wamv3/gps_wamv_link,0,0,-33.724388532,150.673657862,-0.147764329885,0,0,0,0,0,0,0,0,0,2,3
879800000000,13190,879800000000,wamv3/gps_wamv_link,0,0,-33.724388709,150.673657766,-0.150607833852,0,0,0,0,0,0,0,0,0,2,3
879867000000,13191,879867000000,wamv3/gps_wamv_link,0,0,-33.7243888903,150.673657667,-0.153582475146,0,0,0,0,0,0,0,0,0,2,3
879933000000,13192,879933000000,wamv3/gps_wamv_link,0,0,-33.7243890723,150.673657566,-0.156569222628,0,0,0,0,0,0,0,0,0,2,3
880000000000,13193,880000000000,wamv3/gps_wamv_link,0,0,-33.7243892581,150.673657463,-0.159470545007,0,0,0,0,0,0,0,0,0,2,3
880067000000,13194,880067000000,wamv3/gps_wamv_link,0,0,-33.7243894424,150.673657362,-0.16196349049,0,0,0,0,0,0,0,0,0,2,3
880133000000,13195,880133000000,wamv3/gps_wamv_link,0,0,-33.7243896204,150.673657265,-0.163752309062,0,0,0,0,0,0,0,0,0,2,3
880200000000,13196,880200000000,wamv3/gps_wamv_link,0,0,-33.7243897968,150.67365717,-0.164727529127,0,0,0,0,0,0,0,0,0,2,3
880267000000,13197,880267000000,wamv3/gps_wamv_link,0,0,-33.7243899699,150.673657078,-0.164853222214,0,0,0,0,0,0,0,0,0,2,3
880333000000,13198,880333000000,wamv3/gps_wamv_link,0,0,-33.7243901396,150.673656986,-0.164274490765,0,0,0,0,0,0,0,0,0,2,3
880400000000,13199,880400000000,wamv3/gps_wamv_link,0,0,-33.7243903138,150.673656888,-0.163166990753,0,0,0,0,0,0,0,0,0,2,3
880467000000,13200,880467000000,wamv3/gps_wamv_link,0,0,-33.7243904919,150.673656785,-0.161733803254,0,0,0,0,0,0,0,0,0,2,3
880533000000,13201,880533000000,wamv3/gps_wamv_link,0,0,-33.7243906715,150.673656677,-0.160149578722,0,0,0,0,0,0,0,0,0,2,3
880600000000,13202,880600000000,wamv3/gps_wamv_link,0,0,-33.7243908568,150.673656561,-0.158428365473,0,0,0,0,0,0,0,0,0,2,3
880667000000,13203,880667000000,wamv3/gps_wamv_link,0,0,-33.7243910431,150.673656441,-0.156542736564,0,0,0,0,0,0,0,0,0,2,3
880733000000,13204,880733000000,wamv3/gps_wamv_link,0,0,-33.7243912251,150.67365632,-0.154377315688,0,0,0,0,0,0,0,0,0,2,3
880800000000,13205,880800000000,wamv3/gps_wamv_link,0,0,-33.7243914065,150.673656198,-0.151688723524,0,0,0,0,0,0,0,0,0,2,3
880867000000,13206,880867000000,wamv3/gps_wamv_link,0,0,-33.7243915839,150.673656077,-0.148401892054,0,0,0,0,0,0,0,0,0,2,3
880933000000,13207,880933000000,wamv3/gps_wamv_link,0,0,-33.7243917553,150.67365596,-0.144619657582,0,0,0,0,0,0,0,0,0,2,3
881000000000,13208,881000000000,wamv3/gps_wamv_link,0,0,-33.7243919275,150.673655842,-0.140407972644,0,0,0,0,0,0,0,0,0,2,3
881067000000,13209,881067000000,wamv3/gps_wamv_link,0,0,-33.7243920997,150.673655721,-0.136074180566,0,0,0,0,0,0,0,0,0,2,3
881133000000,13210,881133000000,wamv3/gps_wamv_link,0,0,-33.7243922714,150.673655596,-0.131924086852,0,0,0,0,0,0,0,0,0,2,3
881200000000,13211,881200000000,wamv3/gps_wamv_link,0,0,-33.7243924489,150.673655463,-0.128015073581,0,0,0,0,0,0,0,0,0,2,3
881267000000,13212,881267000000,wamv3/gps_wamv_link,0,0,-33.7243926298,150.673655323,-0.124513565881,0,0,0,0,0,0,0,0,0,2,3
881333000000,13213,881333000000,wamv3/gps_wamv_link,0,0,-33.7243928105,150.673655181,-0.121463170177,0,0,0,0,0,0,0,0,0,2,3
881400000000,13214,881400000000,wamv3/gps_wamv_link,0,0,-33.7243929948,150.673655033,-0.118664212225,0,0,0,0,0,0,0,0,0,2,3
881467000000,13215,881467000000,wamv3/gps_wamv_link,0,0,-33.7243931778,150.673654884,-0.115979870362,0,0,0,0,0,0,0,0,0,2,3
881533000000,13216,881533000000,wamv3/gps_wamv_link,0,0,-33.7243933552,150.673654737,-0.113265395805,0,0,0,0,0,0,0,0,0,2,3
881600000000,13217,881600000000,wamv3/gps_wamv_link,0,0,-33.7243935319,150.673654589,-0.11033440663,0,0,0,0,0,0,0,0,0,2,3
881667000000,13218,881667000000,wamv3/gps_wamv_link,0,0,-33.7243937061,150.673654439,-0.107240394537,0,0,0,0,0,0,0,0,0,2,3
881733000000,13219,881733000000,wamv3/gps_wamv_link,0,0,-33.7243938771,150.673654289,-0.104137592386,0,0,0,0,0,0,0,0,0,2,3
881800000000,13220,881800000000,wamv3/gps_wamv_link,0,0,-33.7243940524,150.673654132,-0.101074358476,0,0,0,0,0,0,0,0,0,2,3
881867000000,13221,881867000000,wamv3/gps_wamv_link,0,0,-33.7243942313,150.673653969,-0.0982300776278,0,0,0,0,0,0,0,0,0,2,3
881933000000,13222,881933000000,wamv3/gps_wamv_link,0,0,-33.7243944116,150.673653802,-0.0957311108657,0,0,0,0,0,0,0,0,0,2,3
882000000000,13223,882000000000,wamv3/gps_wamv_link,0,0,-33.7243945981,150.673653626,-0.0935249921468,0,0,0,0,0,0,0,0,0,2,3
882067000000,13224,882067000000,wamv3/gps_wamv_link,0,0,-33.7243947859,150.673653446,-0.0915813138053,0,0,0,0,0,0,0,0,0,2,3
882133000000,13225,882133000000,wamv3/gps_wamv_link,0,0,-33.7243949701,150.673653267,-0.0897627271254,0,0,0,0,0,0,0,0,0,2,3
882200000000,13226,882200000000,wamv3/gps_wamv_link,0,0,-33.7243951543,150.673653085,-0.0878125195858,0,0,0,0,0,0,0,0,0,2,3
882267000000,13227,882267000000,wamv3/gps_wamv_link,0,0,-33.7243953345,150.673652905,-0.0856085484042,0,0,0,0,0,0,0,0,0,2,3
882333000000,13228,882333000000,wamv3/gps_wamv_link,0,0,-33.7243955086,150.673652729,-0.0831694575097,0,0,0,0,0,0,0,0,0,2,3
882400000000,13229,882400000000,wamv3/gps_wamv_link,0,0,-33.724395683,150.67365255,-0.0805395676063,0,0,0,0,0,0,0,0,0,2,3
882467000000,13230,882467000000,wamv3/gps_wamv_link,0,0,-33.724395857,150.67365237,-0.0779625910562,0,0,0,0,0,0,0,0,0,2,3
882533000000,13231,882533000000,wamv3/gps_wamv_link,0,0,-33.7243960298,150.673652189,-0.0756977019677,0,0,0,0,0,0,0,0,0,2,3
882600000000,13232,882600000000,wamv3/gps_wamv_link,0,0,-33.7243962078,150.673652001,-0.0738678552786,0,0,0,0,0,0,0,0,0,2,3
882667000000,13233,882667000000,wamv3/gps_wamv_link,0,0,-33.7243963884,150.673651808,-0.0726366461914,0,0,0,0,0,0,0,0,0,2,3
882733000000,13234,882733000000,wamv3/gps_wamv_link,0,0,-33.7243965679,150.673651614,-0.0720421445176,0,0,0,0,0,0,0,0,0,2,3
882800000000,13235,882800000000,wamv3/gps_wamv_link,0,0,-33.7243967498,150.673651416,-0.0719982589941,0,0,0,0,0,0,0,0,0,2,3
882867000000,13236,882867000000,wamv3/gps_wamv_link,0,0,-33.7243969295,150.673651218,-0.072376103842,0,0,0,0,0,0,0,0,0,2,3
882933000000,13237,882933000000,wamv3/gps_wamv_link,0,0,-33.7243971029,150.673651024,-0.0730199512554,0,0,0,0,0,0,0,0,0,2,3
883000000000,13238,883000000000,wamv3/gps_wamv_link,0,0,-33.7243972752,150.67365083,-0.0738817415073,0,0,0,0,0,0,0,0,0,2,3
883067000000,13239,883067000000,wamv3/gps_wamv_link,0,0,-33.7243974446,150.673650637,-0.0749939097546,0,0,0,0,0,0,0,0,0,2,3
883133000000,13240,883133000000,wamv3/gps_wamv_link,0,0,-33.7243976105,150.673650445,-0.0764514706843,0,0,0,0,0,0,0,0,0,2,3
883200000000,13241,883200000000,wamv3/gps_wamv_link,0,0,-33.7243977799,150.673650248,-0.0784359065154,0,0,0,0,0,0,0,0,0,2,3
883267000000,13242,883267000000,wamv3/gps_wamv_link,0,0,-33.724397952,150.673650045,-0.0810355497025,0,0,0,0,0,0,0,0,0,2,3
883333000000,13243,883333000000,wamv3/gps_wamv_link,0,0,-33.7243981248,150.673649838,-0.0842465693162,0,0,0,0,0,0,0,0,0,2,3
883400000000,13244,883400000000,wamv3/gps_wamv_link,0,0,-33.7243983032,150.673649623,-0.0881419662214,0,0,0,0,0,0,0,0,0,2,3
883467000000,13245,883467000000,wamv3/gps_wamv_link,0,0,-33.7243984831,150.673649403,-0.0925598503166,0,0,0,0,0,0,0,0,0,2,3
883533000000,13246,883533000000,wamv3/gps_wamv_link,0,0,-33.7243986601,150.673649184,-0.0972149302854,0,0,0,0,0,0,0,0,0,2,3
883600000000,13247,883600000000,wamv3/gps_wamv_link,0,0,-33.7243988379,150.673648962,-0.101986343018,0,0,0,0,0,0,0,0,0,2,3
883667000000,13248,883667000000,wamv3/gps_wamv_link,0,0,-33.7243990128,150.67364874,-0.106569145695,0,0,0,0,0,0,0,0,0,2,3
883733000000,13249,883733000000,wamv3/gps_wamv_link,0,0,-33.7243991822,150.673648523,-0.110768364166,0,0,0,0,0,0,0,0,0,2,3
883800000000,13250,883800000000,wamv3/gps_wamv_link,0,0,-33.7243993522,150.673648302,-0.114700379223,0,0,0,0,0,0,0,0,0,2,3
883867000000,13251,883867000000,wamv3/gps_wamv_link,0,0,-33.7243995218,150.673648078,-0.118378528177,0,0,0,0,0,0,0,0,0,2,3
883933000000,13252,883933000000,wamv3/gps_wamv_link,0,0,-33.7243996902,150.673647854,-0.121866137168,0,0,0,0,0,0,0,0,0,2,3
884000000000,13253,884000000000,wamv3/gps_wamv_link,0,0,-33.7243998638,150.673647621,-0.125371948929,0,0,0,0,0,0,0,0,0,2,3
884067000000,13254,884067000000,wamv3/gps_wamv_link,0,0,-33.7244000402,150.673647384,-0.128900319502,0,0,0,0,0,0,0,0,0,2,3
884133000000,13255,884133000000,wamv3/gps_wamv_link,0,0,-33.7244002157,150.673647147,-0.132380303428,0,0,0,0,0,0,0,0,0,2,3
884200000000,13256,884200000000,wamv3/gps_wamv_link,0,0,-33.7244003937,150.673646906,-0.13580935811,0,0,0,0,0,0,0,0,0,2,3
884267000000,13257,884267000000,wamv3/gps_wamv_link,0,0,-33.7244005693,150.673646664,-0.138959559282,0,0,0,0,0,0,0,0,0,2,3
884333000000,13258,884333000000,wamv3/gps_wamv_link,0,0,-33.7244007384,150.673646429,-0.141624466867,0,0,0,0,0,0,0,0,0,2,3
884400000000,13259,884400000000,wamv3/gps_wamv_link,0,0,-33.7244009058,150.673646192,-0.14380261355,0,0,0,0,0,0,0,0,0,2,3
884467000000,13260,884467000000,wamv3/gps_wamv_link,0,0,-33.7244010698,150.673645959,-0.145494371877,0,0,0,0,0,0,0,0,0,2,3
884533000000,13261,884533000000,wamv3/gps_wamv_link,0,0,-33.7244012297,150.673645729,-0.14683143315,0,0,0,0,0,0,0,0,0,2,3
884600000000,13262,884600000000,wamv3/gps_wamv_link,0,0,-33.7244013923,150.673645495,-0.148044844011,0,0,0,0,0,0,0,0,0,2,3
884667000000,13263,884667000000,wamv3/gps_wamv_link,0,0,-33.7244015566,150.673645258,-0.14928650269,0,0,0,0,0,0,0,0,0,2,3
884733000000,13264,884733000000,wamv3/gps_wamv_link,0,0,-33.7244017207,150.67364502,-0.150651557108,0,0,0,0,0,0,0,0,0,2,3
884800000000,13265,884800000000,wamv3/gps_wamv_link,0,0,-33.7244018891,150.673644774,-0.152220205515,0,0,0,0,0,0,0,0,0,2,3
884867000000,13266,884867000000,wamv3/gps_wamv_link,0,0,-33.7244020581,150.673644525,-0.153920408401,0,0,0,0,0,0,0,0,0,2,3
884933000000,13267,884933000000,wamv3/gps_wamv_link,0,0,-33.724402224,150.673644278,-0.155586816623,0,0,0,0,0,0,0,0,0,2,3
885000000000,13268,885000000000,wamv3/gps_wamv_link,0,0,-33.7244023905,150.673644028,-0.157083495763,0,0,0,0,0,0,0,0,0,2,3
885067000000,13269,885067000000,wamv3/gps_wamv_link,0,0,-33.7244025545,150.673643781,-0.158217067982,0,0,0,0,0,0,0,0,0,2,3
885133000000,13270,885133000000,wamv3/gps_wamv_link,0,0,-33.7244027136,150.673643538,-0.158894058674,0,0,0,0,0,0,0,0,0,2,3
885200000000,13271,885200000000,wamv3/gps_wamv_link,0,0,-33.7244028734,150.673643293,-0.159143327937,0,0,0,0,0,0,0,0,0,2,3
885267000000,13272,885267000000,wamv3/gps_wamv_link,0,0,-33.7244030329,150.673643045,-0.159024735112,0,0,0,0,0,0,0,0,0,2,3
885333000000,13273,885333000000,wamv3/gps_wamv_link,0,0,-33.7244031914,150.673642796,-0.158639585521,0,0,0,0,0,0,0,0,0,2,3
885400000000,13274,885400000000,wamv3/gps_wamv_link,0,0,-33.7244033549,150.673642538,-0.158054185552,0,0,0,0,0,0,0,0,0,2,3
885467000000,13275,885467000000,wamv3/gps_wamv_link,0,0,-33.7244035216,150.673642275,-0.157311898086,0,0,0,0,0,0,0,0,0,2,3
885533000000,13276,885533000000,wamv3/gps_wamv_link,0,0,-33.7244036881,150.673642013,-0.15640344565,0,0,0,0,0,0,0,0,0,2,3
885600000000,13277,885600000000,wamv3/gps_wamv_link,0,0,-33.7244038578,150.673641744,-0.155197668322,0,0,0,0,0,0,0,0,0,2,3
885667000000,13278,885667000000,wamv3/gps_wamv_link,0,0,-33.7244040261,150.673641476,-0.153537769585,0,0,0,0,0,0,0,0,0,2,3
885733000000,13279,885733000000,wamv3/gps_wamv_link,0,0,-33.7244041889,150.673641213,-0.151290073322,0,0,0,0,0,0,0,0,0,2,3
885800000000,13280,885800000000,wamv3/gps_wamv_link,0,0,-33.7244043504,150.673640949,-0.148289106149,0,0,0,0,0,0,0,0,0,2,3
885867000000,13281,885867000000,wamv3/gps_wamv_link,0,0,-33.7244045089,150.673640686,-0.14458898418,0,0,0,0,0,0,0,0,0,2,3
885933000000,13282,885933000000,wamv3/gps_wamv_link,0,0,-33.7244046633,150.673640429,-0.140398567772,0,0,0,0,0,0,0,0,0,2,3
886000000000,13283,886000000000,wamv3/gps_wamv_link,0,0,-33.7244048203,150.673640168,-0.135796661368,0,0,0,0,0,0,0,0,0,2,3
886067000000,13284,886067000000,wamv3/gps_wamv_link,0,0,-33.7244049787,150.673639905,-0.131059556827,0,0,0,0,0,0,0,0,0,2,3
886133000000,13285,886133000000,wamv3/gps_wamv_link,0,0,-33.7244051365,150.673639642,-0.126436924868,0,0,0,0,0,0,0,0,0,2,3
886200000000,13286,886200000000,wamv3/gps_wamv_link,0,0,-33.7244052979,150.673639373,-0.121902811518,0,0,0,0,0,0,0,0,0,2,3
886267000000,13287,886267000000,wamv3/gps_wamv_link,0,0,-33.7244054593,150.673639101,-0.117560371201,0,0,0,0,0,0,0,0,0,2,3
886333000000,13288,886333000000,wamv3/gps_wamv_link,0,0,-33.7244056169,150.673638834,-0.113424388155,0,0,0,0,0,0,0,0,0,2,3
886400000000,13289,886400000000,wamv3/gps_wamv_link,0,0,-33.7244057746,150.673638565,-0.109283719666,0,0,0,0,0,0,0,0,0,2,3
886467000000,13290,886467000000,wamv3/gps_wamv_link,0,0,-33.7244059293,150.6736383,-0.105140283038,0,0,0,0,0,0,0,0,0,2,3
