t,field.header.seq,field.header.stamp,field.header.frame_id,field.status.status,field.status.service,Y,X,field.altitude,field.position_covariance0,field.position_covariance1,field.position_covariance2,field.position_covariance3,field.position_covariance4,field.position_covariance5,field.position_covariance6,field.position_covariance7,field.position_covariance8,field.position_covariance_type,trajectory_id
854267000000,12813,854267000000,wamv5/gps_wamv_link,0,0,-33.7242236853,150.673693637,-0.0815586512737,0,0,0,0,0,0,0,0,0,2,5
854333000000,12814,854333000000,wamv5/gps_wamv_link,0,0,-33.7242237498,150.673693627,-0.0963825442269,0,0,0,0,0,0,0,0,0,2,5
854400000000,12815,854400000000,wamv5/gps_wamv_link,0,0,-33.724223813,150.673693615,-0.115943382426,0,0,0,0,0,0,0,0,0,2,5
854467000000,12816,854467000000,wamv5/gps_wamv_link,0,0,-33.7242238711,150.673693594,-0.131634669589,0,0,0,0,0,0,0,0,0,2,5
854533000000,12817,854533000000,wamv5/gps_wamv_link,0,0,-33.7242239225,150.67369356,-0.137587808259,0,0,0,0,0,0,0,0,0,2,5
854600000000,12818,854600000000,wamv5/gps_wamv_link,0,0,-33.7242239702,150.673693513,-0.133624913604,0,0,0,0,0,0,0,0,0,2,5
854667000000,12819,854667000000,wamv5/gps_wamv_link,0,0,-33.724224016,150.673693457,-0.124392562255,0,0,0,0,0,0,0,0,0,2,5
854733000000,12820,854733000000,wamv5/gps_wamv_link,0,0,-33.7242240601,150.6736934,-0.116843724337,0,0,0,0,0,0,0,0,0,2,5
854800000000,12821,854800000000,wamv5/gps_wamv_link,0,0,-33.724224102,150.673693347,-0.115912360941,0,0,0,0,0,0,0,0,0,2,5
854867000000,12822,854867000000,wamv5/gps_wamv_link,0,0,-33.7242241382,150.673693302,-0.123167625423,0,0,0,0,0,0,0,0,0,2,5
854933000000,12823,854933000000,wamv5/gps_wamv_link,0,0,-33.7242241663,150.673693263,-0.13590138473,0,0,0,0,0,0,0,0,0,2,5
855000000000,12824,855000000000,wamv5/gps_wamv_link,0,0,-33.72422419,150.673693225,-0.149583625098,0,0,0,0,0,0,0,0,0,2,5
855067000000,12825,855067000000,wamv5/gps_wamv_link,0,0,-33.7242242119,150.673693184,-0.158980079423,0,0,0,0,0,0,0,0,0,2,5
855133000000,12826,855133000000,wamv5/gps_wamv_link,0,0,-33.7242242354,150.673693134,-0.161427185969,0,0,0,0,0,0,0,0,0,2,5
855200000000,12827,855200000000,wamv5/gps_wamv_link,0,0,-33.724224263,150.673693071,-0.157915373275,0,0,0,0,0,0,0,0,0,2,5
855267000000,12828,855267000000,wamv5/gps_wamv_link,0,0,-33.7242242939,150.673692996,-0.1521165451,0,0,0,0,0,0,0,0,0,2,5
855333000000,12829,855333000000,wamv5/gps_wamv_link,0,0,-33.724224325,150.673692914,-0.148454805566,0,0,0,0,0,0,0,0,0,2,5
855400000000,12830,855400000000,wamv5/gps_wamv_link,0,0,-33.7242243555,150.673692829,-0.149558851944,0,0,0,0,0,0,0,0,0,2,5
855467000000,12831,855467000000,wamv5/gps_wamv_link,0,0,-33.7242243849,150.673692747,-0.155502119367,0,0,0,0,0,0,0,0,0,2,5
855533000000,12832,855533000000,wamv5/gps_wamv_link,0,0,-33.7242244151,150.673692671,-0.163641688684,0,0,0,0,0,0,0,0,0,2,5
855600000000,12833,855600000000,wamv5/gps_wamv_link,0,0,-33.7242244502,150.6736926,-0.170624860679,0,0,0,0,0,0,0,0,0,2,5
855667000000,12834,855667000000,wamv5/gps_wamv_link,0,0,-33.7242244917,150.673692532,-0.173353619614,0,0,0,0,0,0,0,0,0,2,5
855733000000,12835,855733000000,wamv5/gps_wamv_link,0,0,-33.7242245383,150.673692466,-0.170966933243,0,0,0,0,0,0,0,0,0,2,5
855800000000,12836,855800000000,wamv5/gps_wamv_link,0,0,-33.7242245893,150.673692394,-0.16478381153,0,0,0,0,0,0,0,0,0,2,5
855867000000,12837,855867000000,wamv5/gps_wamv_link,0,0,-33.7242246409,150.673692315,-0.15767917122,0,0,0,0,0,0,0,0,0,2,5
855933000000,12838,855933000000,wamv5/gps_wamv_link,0,0,-33.7242246913,150.673692229,-0.152560940334,0,0,0,0,0,0,0,0,0,2,5
856000000000,12839,856000000000,wamv5/gps_wamv_link,0,0,-33.7242247446,150.673692137,-0.150778220485,0,0,0,0,0,0,0,0,0,2,5
856067000000,12840,856067000000,wamv5/gps_wamv_link,0,0,-33.7242248014,150.673692041,-0.152058073472,0,0,0,0,0,0,0,0,0,2,5
856133000000,12841,856133000000,wamv5/gps_wamv_link,0,0,-33.7242248602,150.673691948,-0.154435834537,0,0,0,0,0,0,0,0,0,2,5
856200000000,12842,856200000000,wamv5/gps_wamv_link,0,0,-33.7242249212,150.673691858,-0.155563982666,0,0,0,0,0,0,0,0,0,2,5
856267000000,12843,856267000000,wamv5/gps_wamv_link,0,0,-33.724224981,150.673691774,-0.153657274923,0,0,0,0,0,0,0,0,0,2,5
856333000000,12844,856333000000,wamv5/gps_wamv_link,0,0,-33.7242250368,150.673691695,-0.148566517137,0,0,0,0,0,0,0,0,0,2,5
856400000000,12845,856400000000,wamv5/gps_wamv_link,0,0,-33.7242250901,150.673691618,-0.141373846685,0,0,0,0,0,0,0,0,0,2,5
856467000000,12846,856467000000,wamv5/gps_wamv_link,0,0,-33.7242251425,150.67369154,-0.134152033763,0,0,0,0,0,0,0,0,0,2,5
856533000000,12847,856533000000,wamv5/gps_wamv_link,0,0,-33.724225196,150.673691459,-0.128738944093,0,0,0,0,0,0,0,0,0,2,5
856600000000,12848,856600000000,wamv5/gps_wamv_link,0,0,-33.7242252544,150.67369137,-0.125741327706,0,0,0,0,0,0,0,0,0,2,5
856667000000,12849,856667000000,wamv5/gps_wamv_link,0,0,-33.7242253163,150.673691273,-0.12484918662,0,0,0,0,0,0,0,0,0,2,5
856733000000,12850,856733000000,wamv5/gps_wamv_link,0,0,-33.7242253791,150.673691171,-0.124797349537,0,0,0,0,0,0,0,0,0,2,5
856800000000,12851,856800000000,wamv5/gps_wamv_link,0,0,-33.7242254429,150.673691064,-0.124135029983,0,0,0,0,0,0,0,0,0,2,5
856867000000,12852,856867000000,wamv5/gps_wamv_link,0,0,-33.7242255069,150.673690958,-0.121871765797,0,0,0,0,0,0,0,0,0,2,5
856933000000,12853,856933000000,wamv5/gps_wamv_link,0,0,-33.7242255723,150.673690856,-0.117957331349,0,0,0,0,0,0,0,0,0,2,5
857000000000,12854,857000000000,wamv5/gps_wamv_link,0,0,-33.7242256437,150.673690757,-0.112966281287,0,0,0,0,0,0,0,0,0,2,5
857067000000,12855,857067000000,wamv5/gps_wamv_link,0,0,-33.7242257218,150.673690663,-0.108043472348,0,0,0,0,0,0,0,0,0,2,5
857133000000,12856,857133000000,wamv5/gps_wamv_link,0,0,-33.7242258048,150.673690572,-0.104164606103,0,0,0,0,0,0,0,0,0,2,5
857200000000,12857,857200000000,wamv5/gps_wamv_link,0,0,-33.7242258937,150.673690476,-0.101547331514,0,0,0,0,0,0,0,0,0,2,5
857267000000,12858,857267000000,wamv5/gps_wamv_link,0,0,-33.7242259858,150.673690374,-0.0999396034727,0,0,0,0,0,0,0,0,0,2,5
857333000000,12859,857333000000,wamv5/gps_wamv_link,0,0,-33.7242260799,150.673690265,-0.0986505888604,0,0,0,0,0,0,0,0,0,2,5
857400000000,12860,857400000000,wamv5/gps_wamv_link,0,0,-33.7242261808,150.673690147,-0.0969603290541,0,0,0,0,0,0,0,0,0,2,5
857467000000,12861,857467000000,wamv5/gps_wamv_link,0,0,-33.7242262893,150.673690025,-0.0945348982897,0,0,0,0,0,0,0,0,0,2,5
857533000000,12862,857533000000,wamv5/gps_wamv_link,0,0,-33.7242264041,150.673689904,-0.0914951484986,0,0,0,0,0,0,0,0,0,2,5
857600000000,12863,857600000000,wamv5/gps_wamv_link,0,0,-33.7242265275,150.673689786,-0.0881170543729,0,0,0,0,0,0,0,0,0,2,5
857667000000,12864,857667000000,wamv5/gps_wamv_link,0,0,-33.7242266554,150.673689675,-0.0848946381095,0,0,0,0,0,0,0,0,0,2,5
857733000000,12865,857733000000,wamv5/gps_wamv_link,0,0,-33.7242267842,150.673689572,-0.082189202415,0,0,0,0,0,0,0,0,0,2,5
857800000000,12866,857800000000,wamv5/gps_wamv_link,0,0,-33.7242269179,150.673689473,-0.0799970463663,0,0,0,0,0,0,0,0,0,2,5
857867000000,12867,857867000000,wamv5/gps_wamv_link,0,0,-33.7242270565,150.673689375,-0.078201559231,0,0,0,0,0,0,0,0,0,2,5
857933000000,12868,857933000000,wamv5/gps_wamv_link,0,0,-33.7242272001,150.673689276,-0.0765572310078,0,0,0,0,0,0,0,0,0,2,5
858000000000,12869,858000000000,wamv5/gps_wamv_link,0,0,-33.7242273542,150.673689171,-0.0748404859116,0,0,0,0,0,0,0,0,0,2,5
858067000000,12870,858067000000,wamv5/gps_wamv_link,0,0,-33.724227516,150.673689061,-0.0731408886055,0,0,0,0,0,0,0,0,0,2,5
858133000000,12871,858133000000,wamv5/gps_wamv_link,0,0,-33.7242276807,150.673688949,-0.0717626083763,0,0,0,0,0,0,0,0,0,2,5
858200000000,12872,858200000000,wamv5/gps_wamv_link,0,0,-33.7242278517,150.673688834,-0.0709981761195,0,0,0,0,0,0,0,0,0,2,5
858267000000,12873,858267000000,wamv5/gps_wamv_link,0,0,-33.7242280261,150.673688722,-0.0710636512871,0,0,0,0,0,0,0,0,0,2,5
858333000000,12874,858333000000,wamv5/gps_wamv_link,0,0,-33.7242282023,150.673688618,-0.0718918848803,0,0,0,0,0,0,0,0,0,2,5
858400000000,12875,858400000000,wamv5/gps_wamv_link,0,0,-33.724228387,150.67368852,-0.0732707247236,0,0,0,0,0,0,0,0,0,2,5
858467000000,12876,858467000000,wamv5/gps_wamv_link,0,0,-33.7242285783,150.673688428,-0.0748989061958,0,0,0,0,0,0,0,0,0,2,5
858533000000,12877,858533000000,wamv5/gps_wamv_link,0,0,-33.7242287726,150.673688341,-0.0765424877911,0,0,0,0,0,0,0,0,0,2,5
858600000000,12878,858600000000,wamv5/gps_wamv_link,0,0,-33.7242289747,150.673688252,-0.0782171872503,0,0,0,0,0,0,0,0,0,2,5
858667000000,12879,858667000000,wamv5/gps_wamv_link,0,0,-33.724229181,150.673688157,-0.0800621553993,0,0,0,0,0,0,0,0,0,2,5
858733000000,12880,858733000000,wamv5/gps_wamv_link,0,0,-33.7242293891,150.673688056,-0.0823434058808,0,0,0,0,0,0,0,0,0,2,5
858800000000,12881,858800000000,wamv5/gps_wamv_link,0,0,-33.7242296074,150.673687949,-0.0854305421356,0,0,0,0,0,0,0,0,0,2,5
858867000000,12882,858867000000,wamv5/gps_wamv_link,0,0,-33.724229834,150.67368784,-0.0894157868103,0,0,0,0,0,0,0,0,0,2,5
858933000000,12883,858933000000,wamv5/gps_wamv_link,0,0,-33.7242300647,150.673687734,-0.0940520016215,0,0,0,0,0,0,0,0,0,2,5
859000000000,12884,859000000000,wamv5/gps_wamv_link,0,0,-33.7242303034,150.673687632,-0.0990546761114,0,0,0,0,0,0,0,0,0,2,5
859067000000,12885,859067000000,wamv5/gps_wamv_link,0,0,-33.724230544,150.673687536,-0.103849871101,0,0,0,0,0,0,0,0,0,2,5
859133000000,12886,859133000000,wamv5/gps_wamv_link,0,0,-33.7242307818,150.673687447,-0.108013052554,0,0,0,0,0,0,0,0,0,2,5
859200000000,12887,859200000000,wamv5/gps_wamv_link,0,0,-33.7242310236,150.673687361,-0.111579982551,0,0,0,0,0,0,0,0,0,2,5
859267000000,12888,859267000000,wamv5/gps_wamv_link,0,0,-33.7242312678,150.673687277,-0.114657567964,0,0,0,0,0,0,0,0,0,2,5
859333000000,12889,859333000000,wamv5/gps_wamv_link,0,0,-33.7242315128,150.673687193,-0.117528593636,0,0,0,0,0,0,0,0,0,2,5
859400000000,12890,859400000000,wamv5/gps_wamv_link,0,0,-33.7242317675,150.673687105,-0.120604353383,0,0,0,0,0,0,0,0,0,2,5
859467000000,12891,859467000000,wamv5/gps_wamv_link,0,0,-33.7242320273,150.673687013,-0.124043329078,0,0,0,0,0,0,0,0,0,2,5
859533000000,12892,859533000000,wamv5/gps_wamv_link,0,0,-33.724232286,150.67368692,-0.127782260579,0,0,0,0,0,0,0,0,0,2,5
859600000000,12893,859600000000,wamv5/gps_wamv_link,0,0,-33.7242325499,150.673686826,-0.131717200994,0,0,0,0,0,0,0,0,0,2,5
859667000000,12894,859667000000,wamv5/gps_wamv_link,0,0,-33.7242328139,150.673686737,-0.135437072139,0,0,0,0,0,0,0,0,0,2,5
859733000000,12895,859733000000,wamv5/gps_wamv_link,0,0,-33.7242330743,150.673686655,-0.138555443774,0,0,0,0,0,0,0,0,0,2,5
859800000000,12896,859800000000,wamv5/gps_wamv_link,0,0,-33.7242333397,150.673686582,-0.140990677542,0,0,0,0,0,0,0,0,0,2,5
859867000000,12897,859867000000,wamv5/gps_wamv_link,0,0,-33.7242336062,150.673686517,-0.142752482514,0,0,0,0,0,0,0,0,0,2,5
859933000000,12898,859933000000,wamv5/gps_wamv_link,0,0,-33.7242338698,150.673686459,-0.144077344784,0,0,0,0,0,0,0,0,0,2,5
860000000000,12899,860000000000,wamv5/gps_wamv_link,0,0,-33.7242341407,150.673686401,-0.145317789281,0,0,0,0,0,0,0,0,0,2,5
860067000000,12900,860067000000,wamv5/gps_wamv_link,0,0,-33.7242344134,150.67368634,-0.146718257948,0,0,0,0,0,0,0,0,0,2,5
860133000000,12901,860133000000,wamv5/gps_wamv_link,0,0,-33.7242346834,150.673686277,-0.148390960237,0,0,0,0,0,0,0,0,0,2,5
860200000000,12902,860200000000,wamv5/gps_wamv_link,0,0,-33.7242349648,150.67368621,-0.150376763222,0,0,0,0,0,0,0,0,0,2,5
860267000000,12903,860267000000,wamv5/gps_wamv_link,0,0,-33.724235255,150.673686144,-0.152519513348,0,0,0,0,0,0,0,0,0,2,5
860333000000,12904,860333000000,wamv5/gps_wamv_link,0,0,-33.7242355478,150.673686081,-0.154568795897,0,0,0,0,0,0,0,0,0,2,5
860400000000,12905,860400000000,wamv5/gps_wamv_link,0,0,-33.7242358461,150.673686023,-0.156352550654,0,0,0,0,0,0,0,0,0,2,5
860467000000,12906,860467000000,wamv5/gps_wamv_link,0,0,-33.724236142,150.673685971,-0.157666491836,0,0,0,0,0,0,0,0,0,2,5
860533000000,12907,860533000000,wamv5/gps_wamv_link,0,0,-33.7242364303,150.673685924,-0.158461520996,0,0,0,0,0,0,0,0,0,2,5
860600000000,12908,860600000000,wamv5/gps_wamv_link,0,0,-33.7242367212,150.673685881,-0.15884569621,0,0,0,0,0,0,0,0,0,2,5
860667000000,12909,860667000000,wamv5/gps_wamv_link,0,0,-33.7242370149,150.673685839,-0.158944123912,0,0,0,0,0,0,0,0,0,2,5
860733000000,12910,860733000000,wamv5/gps_wamv_link,0,0,-33.7242373105,150.673685798,-0.158884578391,0,0,0,0,0,0,0,0,0,2,5
860800000000,12911,860800000000,wamv5/gps_wamv_link,0,0,-33.7242376141,150.673685752,-0.158743003424,0,0,0,0,0,0,0,0,0,2,5
860867000000,12912,860867000000,wamv5/gps_wamv_link,0,0,-33.7242379197,150.673685701,-0.158539873459,0,0,0,0,0,0,0,0,0,2,5
860933000000,12913,860933000000,wamv5/gps_wamv_link,0,0,-33.7242382212,150.673685647,-0.1582429274,0,0,0,0,0,0,0,0,0,2,5
861000000000,12914,861000000000,wamv5/gps_wamv_link,0,0,-33.7242385268,150.673685591,-0.157738036724,0,0,0,0,0,0,0,0,0,2,5
861067000000,12915,861067000000,wamv5/gps_wamv_link,0,0,-33.7242388317,150.673685537,-0.156856763604,0,0,0,0,0,0,0,0,0,2,5
861133000000,12916,861133000000,wamv5/gps_wamv_link,0,0,-33.7242391313,150.67368549,-0.15543367583,0,0,0,0,0,0,0,0,0,2,5
861200000000,12917,861200000000,wamv5/gps_wamv_link,0,0,-33.7242394344,150.67368545,-0.153292728624,0,0,0,0,0,0,0,0,0,2,5
861267000000,12918,861267000000,wamv5/gps_wamv_link,0,0,-33.7242397357,150.673685417,-0.150433252149,0,0,0,0,0,0,0,0,0,2,5
861333000000,12919,861333000000,wamv5/gps_wamv_link,0,0,-33.7242400301,150.673685387,-0.147015613813,0,0,0,0,0,0,0,0,0,2,5
861400000000,12920,861400000000,wamv5/gps_wamv_link,0,0,-33.724240327,150.673685358,-0.143118696438,0,0,0,0,0,0,0,0,0,2,5
861467000000,12921,861467000000,wamv5/gps_wamv_link,0,0,-33.7242406233,150.673685326,-0.139000524977,0,0,0,0,0,0,0,0,0,2,5
861533000000,12922,861533000000,wamv5/gps_wamv_link,0,0,-33.7242409164,150.673685293,-0.134912720655,0,0,0,0,0,0,0,0,0,2,5
861600000000,12923,861600000000,wamv5/gps_wamv_link,0,0,-33.7242412164,150.673685258,-0.13086109864,0,0,0,0,0,0,0,0,0,2,5
861667000000,12924,861667000000,wamv5/gps_wamv_link,0,0,-33.7242415185,150.673685224,-0.126945954559,0,0,0,0,0,0,0,0,0,2,5
861733000000,12925,861733000000,wamv5/gps_wamv_link,0,0,-33.7242418162,150.673685194,-0.123156491021,0,0,0,0,0,0,0,0,0,2,5
861800000000,12926,861800000000,wamv5/gps_wamv_link,0,0,-33.7242421158,150.673685169,-0.119241956497,0,0,0,0,0,0,0,0,0,2,5
861867000000,12927,861867000000,wamv5/gps_wamv_link,0,0,-33.7242424107,150.673685149,-0.115137553929,0,0,0,0,0,0,0,0,0,2,5
861933000000,12928,861933000000,wamv5/gps_wamv_link,0,0,-33.7242426964,150.673685135,-0.110885280961,0,0,0,0,0,0,0,0,0,2,5
862000000000,12929,862000000000,wamv5/gps_wamv_link,0,0,-33.7242429836,150.673685126,-0.106455984178,0,0,0,0,0,0,0,0,0,2,5
862067000000,12930,862067000000,wamv5/gps_wamv_link,0,0,-33.7242432706,150.67368512,-0.102099899653,0,0,0,0,0,0,0,0,0,2,5
862133000000,12931,862133000000,wamv5/gps_wamv_link,0,0,-33.7242435548,150.673685115,-0.0980842010452,0,0,0,0,0,0,0,0,0,2,5
862200000000,12932,862200000000,wamv5/gps_wamv_link,0,0,-33.7242438452,150.673685108,-0.0944647908519,0,0,0,0,0,0,0,0,0,2,5
862267000000,12933,862267000000,wamv5/gps_wamv_link,0,0,-33.7242441366,150.673685096,-0.0914255329484,0,0,0,0,0,0,0,0,0,2,5
862333000000,12934,862333000000,wamv5/gps_wamv_link,0,0,-33.7242444236,150.673685081,-0.0890359267776,0,0,0,0,0,0,0,0,0,2,5
862400000000,12935,862400000000,wamv5/gps_wamv_link,0,0,-33.724244714,150.673685063,-0.0871587340573,0,0,0,0,0,0,0,0,0,2,5
862467000000,12936,862467000000,wamv5/gps_wamv_link,0,0,-33.7242450035,150.673685048,-0.0856683800714,0,0,0,0,0,0,0,0,0,2,5
862533000000,12937,862533000000,wamv5/gps_wamv_link,0,0,-33.724245288,150.673685038,-0.0843691787891,0,0,0,0,0,0,0,0,0,2,5
862600000000,12938,862600000000,wamv5/gps_wamv_link,0,0,-33.7242455752,150.673685033,-0.083047608589,0,0,0,0,0,0,0,0,0,2,5
862667000000,12939,862667000000,wamv5/gps_wamv_link,0,0,-33.7242458598,150.673685033,-0.0816557499704,0,0,0,0,0,0,0,0,0,2,5
862733000000,12940,862733000000,wamv5/gps_wamv_link,0,0,-33.7242461375,150.673685034,-0.0802662403698,0,0,0,0,0,0,0,0,0,2,5
862800000000,12941,862800000000,wamv5/gps_wamv_link,0,0,-33.7242464175,150.673685034,-0.0789685434009,0,0,0,0,0,0,0,0,0,2,5
862867000000,12942,862867000000,wamv5/gps_wamv_link,0,0,-33.7242466975,150.67368503,-0.0779417309998,0,0,0,0,0,0,0,0,0,2,5
862933000000,12943,862933000000,wamv5/gps_wamv_link,0,0,-33.7242469753,150.673685023,-0.0773226176605,0,0,0,0,0,0,0,0,0,2,5
863000000000,12944,863000000000,wamv5/gps_wamv_link,0,0,-33.7242472605,150.673685014,-0.077153663865,0,0,0,0,0,0,0,0,0,2,5
863067000000,12945,863067000000,wamv5/gps_wamv_link,0,0,-33.7242475484,150.673685005,-0.0774087446867,0,0,0,0,0,0,0,0,0,2,5
863133000000,12946,863133000000,wamv5/gps_wamv_link,0,0,-33.7242478323,150.673684998,-0.0779318744531,0,0,0,0,0,0,0,0,0,2,5
863200000000,12947,863200000000,wamv5/gps_wamv_link,0,0,-33.724248118,150.673684995,-0.0785297670585,0,0,0,0,0,0,0,0,0,2,5
863267000000,12948,863267000000,wamv5/gps_wamv_link,0,0,-33.7242483991,150.673684996,-0.0790090754872,0,0,0,0,0,0,0,0,0,2,5
863333000000,12949,863333000000,wamv5/gps_wamv_link,0,0,-33.7242486717,150.673685003,-0.0792924908094,0,0,0,0,0,0,0,0,0,2,5
863400000000,12950,863400000000,wamv5/gps_wamv_link,0,0,-33.7242489455,150.673685014,-0.0794548037868,0,0,0,0,0,0,0,0,0,2,5
863467000000,12951,863467000000,wamv5/gps_wamv_link,0,0,-33.7242492183,150.67368503,-0.0796598835574,0,0,0,0,0,0,0,0,0,2,5
863533000000,12952,863533000000,wamv5/gps_wamv_link,0,0,-33.7242494876,150.673685046,-0.0801011027293,0,0,0,0,0,0,0,0,0,2,5
863600000000,12953,863600000000,wamv5/gps_wamv_link,0,0,-33.7242497621,150.673685062,-0.0809657197411,0,0,0,0,0,0,0,0,0,2,5
863667000000,12954,863667000000,wamv5/gps_wamv_link,0,0,-33.7242500374,150.673685074,-0.0823635292248,0,0,0,0,0,0,0,0,0,2,5
863733000000,12955,863733000000,wamv5/gps_wamv_link,0,0,-33.7242503088,150.673685085,-0.0842939166486,0,0,0,0,0,0,0,0,0,2,5
863800000000,12956,863800000000,wamv5/gps_wamv_link,0,0,-33.7242505835,150.673685095,-0.0867572359116,0,0,0,0,0,0,0,0,0,2,5
863867000000,12957,863867000000,wamv5/gps_wamv_link,0,0,-33.724250857,150.673685108,-0.0895877064245,0,0,0,0,0,0,0,0,0,2,5
863933000000,12958,863933000000,wamv5/gps_wamv_link,0,0,-33.7242511247,150.673685126,-0.0925655596008,0,0,0,0,0,0,0,0,0,2,5
864000000000,12959,864000000000,wamv5/gps_wamv_link,0,0,-33.7242513943,150.673685151,-0.0956500870502,0,0,0,0,0,0,0,0,0,2,5
864067000000,12960,864067000000,wamv5/gps_wamv_link,0,0,-33.7242516612,150.673685181,-0.0987600236133,0,0,0,0,0,0,0,0,0,2,5
864133000000,12961,864133000000,wamv5/gps_wamv_link,0,0,-33.7242519212,150.673685213,-0.101904922686,0,0,0,0,0,0,0,0,0,2,5
864200000000,12962,864200000000,wamv5/gps_wamv_link,0,0,-33.7242521834,150.673685243,-0.105288208221,0,0,0,0,0,0,0,0,0,2,5
864267000000,12963,864267000000,wamv5/gps_wamv_link,0,0,-33.7242524455,150.673685271,-0.108973155125,0,0,0,0,0,0,0,0,0,2,5
864333000000,12964,864333000000,wamv5/gps_wamv_link,0,0,-33.7242527056,150.673685294,-0.112969829767,0,0,0,0,0,0,0,0,0,2,5
864400000000,12965,864400000000,wamv5/gps_wamv_link,0,0,-33.7242529731,150.673685316,-0.117410498273,0,0,0,0,0,0,0,0,0,2,5
864467000000,12966,864467000000,wamv5/gps_wamv_link,0,0,-33.7242532435,150.673685336,-0.122164901269,0,0,0,0,0,0,0,0,0,2,5
864533000000,12967,864533000000,wamv5/gps_wamv_link,0,0,-33.7242535102,150.673685356,-0.126991216927,0,0,0,0,0,0,0,0,0,2,5
864600000000,12968,864600000000,wamv5/gps_wamv_link,0,0,-33.7242537776,150.673685378,-0.131800435343,0,0,0,0,0,0,0,0,0,2,5
864667000000,12969,864667000000,wamv5/gps_wamv_link,0,0,-33.7242540405,150.673685401,-0.136274259885,0,0,0,0,0,0,0,0,0,2,5
864733000000,12970,864733000000,wamv5/gps_wamv_link,0,0,-33.7242542958,150.673685424,-0.140190672848,0,0,0,0,0,0,0,0,0,2,5
864800000000,12971,864800000000,wamv5/gps_wamv_link,0,0,-33.7242545526,150.673685448,-0.143628267897,0,0,0,0,0,0,0,0,0,2,5
864867000000,12972,864867000000,wamv5/gps_wamv_link,0,0,-33.7242548093,150.673685473,-0.14658956701,0,0,0,0,0,0,0,0,0,2,5
864933000000,12973,864933000000,wamv5/gps_wamv_link,0,0,-33.7242550633,150.673685497,-0.149158162343,0,0,0,0,0,0,0,0,0,2,5
865000000000,12974,865000000000,wamv5/gps_wamv_link,0,0,-33.724255323,150.673685519,-0.151531953519,0,0,0,0,0,0,0,0,0,2,5
865067000000,12975,865067000000,wamv5/gps_wamv_link,0,0,-33.7242555841,150.673685537,-0.153747563348,0,0,0,0,0,0,0,0,0,2,5
865133000000,12976,865133000000,wamv5/gps_wamv_link,0,0,-33.7242558419,150.673685551,-0.155787704549,0,0,0,0,0,0,0,0,0,2,5
865200000000,12977,865200000000,wamv5/gps_wamv_link,0,0,-33.7242561037,150.673685564,-0.15765221073,0,0,0,0,0,0,0,0,0,2,5
865267000000,12978,865267000000,wamv5/gps_wamv_link,0,0,-33.7242563637,150.673685581,-0.159173481544,0,0,0,0,0,0,0,0,0,2,5
865333000000,12979,865333000000,wamv5/gps_wamv_link,0,0,-33.7242566163,150.673685602,-0.16017798581,0,0,0,0,0,0,0,0,0,2,5
865400000000,12980,865400000000,wamv5/gps_wamv_link,0,0,-33.7242568683,150.673685628,-0.160579808291,0,0,0,0,0,0,0,0,0,2,5
865467000000,12981,865467000000,wamv5/gps_wamv_link,0,0,-33.7242571161,150.67368566,-0.16034666126,0,0,0,0,0,0,0,0,0,2,5
865533000000,12982,865533000000,wamv5/gps_wamv_link,0,0,-33.7242573574,150.673685695,-0.159597670794,0,0,0,0,0,0,0,0,0,2,5
865600000000,12983,865600000000,wamv5/gps_wamv_link,0,0,-33.7242576009,150.673685731,-0.15849155472,0,0,0,0,0,0,0,0,0,2,5
865667000000,12984,865667000000,wamv5/gps_wamv_link,0,0,-33.7242578447,150.673685767,-0.157235627328,0,0,0,0,0,0,0,0,0,2,5
865733000000,12985,865733000000,wamv5/gps_wamv_link,0,0,-33.7242580868,150.673685802,-0.15601144359,0,0,0,0,0,0,0,0,0,2,5
865800000000,12986,865800000000,wamv5/gps_wamv_link,0,0,-33.7242583339,150.673685836,-0.154876230527,0,0,0,0,0,0,0,0,0,2,5
865867000000,12987,865867000000,wamv5/gps_wamv_link,0,0,-33.7242585815,150.67368587,-0.153853405598,0,0,0,0,0,0,0,0,0,2,5
865933000000,12988,865933000000,wamv5/gps_wamv_link,0,0,-33.7242588239,150.673685904,-0.152872395516,0,0,0,0,0,0,0,0,0,2,5
866000000000,12989,866000000000,wamv5/gps_wamv_link,0,0,-33.7242590665,150.67368594,-0.15176081716,0,0,0,0,0,0,0,0,0,2,5
866067000000,12990,866067000000,wamv5/gps_wamv_link,0,0,-33.7242593042,150.673685978,-0.150390937611,0,0,0,0,0,0,0,0,0,2,5
866133000000,12991,866133000000,wamv5/gps_wamv_link,0,0,-33.7242595338,150.673686018,-0.148712797014,0,0,0,0,0,0,0,0,0,2,5
866200000000,12992,866200000000,wamv5/gps_wamv_link,0,0,-33.7242597648,150.673686062,-0.146689492595,0,0,0,0,0,0,0,0,0,2,5
866267000000,12993,866267000000,wamv5/gps_wamv_link,0,0,-33.7242599957,150.673686109,-0.144437247055,0,0,0,0,0,0,0,0,0,2,5
866333000000,12994,866333000000,wamv5/gps_wamv_link,0,0,-33.7242602245,150.673686155,-0.142117411902,0,0,0,0,0,0,0,0,0,2,5
866400000000,12995,866400000000,wamv5/gps_wamv_link,0,0,-33.7242604575,150.673686199,-0.139772124812,0,0,0,0,0,0,0,0,0,2,5
866467000000,12996,866467000000,wamv5/gps_wamv_link,0,0,-33.7242606912,150.673686239,-0.137504618201,0,0,0,0,0,0,0,0,0,2,5
866533000000,12997,866533000000,wamv5/gps_wamv_link,0,0,-33.7242609217,150.673686275,-0.135351874338,0,0,0,0,0,0,0,0,0,2,5
866600000000,12998,866600000000,wamv5/gps_wamv_link,0,0,-33.7242611553,150.67368631,-0.133178981677,0,0,0,0,0,0,0,0,0,2,5
866667000000,12999,866667000000,wamv5/gps_wamv_link,0,0,-33.7242613875,150.673686346,-0.130880272271,0,0,0,0,0,0,0,0,0,2,5
866733000000,13000,866733000000,wamv5/gps_wamv_link,0,0,-33.7242616137,150.673686384,-0.128330381107,0,0,0,0,0,0,0,0,0,2,5
866800000000,13001,866800000000,wamv5/gps_wamv_link,0,0,-33.7242618395,150.673686426,-0.125322893603,0,0,0,0,0,0,0,0,0,2,5
866867000000,13002,866867000000,wamv5/gps_wamv_link,0,0,-33.7242620611,150.673686471,-0.121854185325,0,0,0,0,0,0,0,0,0,2,5
866933000000,13003,866933000000,wamv5/gps_wamv_link,0,0,-33.7242622755,150.673686516,-0.11805205729,0,0,0,0,0,0,0,0,0,2,5
867000000000,13004,867000000000,wamv5/gps_wamv_link,0,0,-33.7242624906,150.673686561,-0.11394658858,0,0,0,0,0,0,0,0,0,2,5
867067000000,13005,867067000000,wamv5/gps_wamv_link,0,0,-33.7242627053,150.673686605,-0.109768580925,0,0,0,0,0,0,0,0,0,2,5
867133000000,13006,867133000000,wamv5/gps_wamv_link,0,0,-33.7242629177,150.673686647,-0.105734879403,0,0,0,0,0,0,0,0,0,2,5
867200000000,13007,867200000000,wamv5/gps_wamv_link,0,0,-33.7242631347,150.673686689,-0.101826871047,0,0,0,0,0,0,0,0,0,2,5
867267000000,13008,867267000000,wamv5/gps_wamv_link,0,0,-33.7242633521,150.673686731,-0.0981396311435,0,0,0,0,0,0,0,0,0,2,5
867333000000,13009,867333000000,wamv5/gps_wamv_link,0,0,-33.7242635645,150.673686773,-0.0946831649086,0,0,0,0,0,0,0,0,0,2,5
867400000000,13010,867400000000,wamv5/gps_wamv_link,0,0,-33.7242637764,150.673686816,-0.0912657582285,0,0,0,0,0,0,0,0,0,2,5
867467000000,13011,867467000000,wamv5/gps_wamv_link,0,0,-33.7242639834,150.673686862,-0.0878607216869,0,0,0,0,0,0,0,0,0,2,5
867533000000,13012,867533000000,wamv5/gps_wamv_link,0,0,-33.7242641828,150.67368691,-0.0845022609334,0,0,0,0,0,0,0,0,0,2,5
867600000000,13013,867600000000,wamv5/gps_wamv_link,0,0,-33.7242643817,150.673686963,-0.0811598060038,0,0,0,0,0,0,0,0,0,2,5
867667000000,13014,867667000000,wamv5/gps_wamv_link,0,0,-33.7242645786,150.673687018,-0.078028530572,0,0,0,0,0,0,0,0,0,2,5
867733000000,13015,867733000000,wamv5/gps_wamv_link,0,0,-33.7242647721,150.673687073,-0.0753190127225,0,0,0,0,0,0,0,0,0,2,5
867800000000,13016,867800000000,wamv5/gps_wamv_link,0,0,-33.7242649687,150.673687127,-0.0731044500591,0,0,0,0,0,0,0,0,0,2,5
867867000000,13017,867867000000,wamv5/gps_wamv_link,0,0,-33.7242651658,150.673687178,-0.0715398274264,0,0,0,0,0,0,0,0,0,2,5
867933000000,13018,867933000000,wamv5/gps_wamv_link,0,0,-33.7242653601,150.673687225,-0.0706773781348,0,0,0,0,0,0,0,0,0,2,5
868000000000,13019,868000000000,wamv5/gps_wamv_link,0,0,-33.7242655571,150.673687272,-0.0704568491222,0,0,0,0,0,0,0,0,0,2,5
868067000000,13020,868067000000,wamv5/gps_wamv_link,0,0,-33.724265753,150.673687319,-0.0707862473017,0,0,0,0,0,0,0,0,0,2,5
868133000000,13021,868133000000,wamv5/gps_wamv_link,0,0,-33.7242659439,150.673687367,-0.0714991524321,0,0,0,0,0,0,0,0,0,2,5
868200000000,13022,868200000000,wamv5/gps_wamv_link,0,0,-33.7242661347,150.673687419,-0.0724778377187,0,0,0,0,0,0,0,0,0,2,5
868267000000,13023,868267000000,wamv5/gps_wamv_link,0,0,-33.7242663219,150.673687473,-0.0736337122153,0,0,0,0,0,0,0,0,0,2,5
868333000000,13024,868333000000,wamv5/gps_wamv_link,0,0,-33.7242665033,150.673687526,-0.0749424708663,0,0,0,0,0,0,0,0,0,2,5
868400000000,13025,868400000000,wamv5/gps_wamv_link,0,0,-33.7242666857,150.673687578,-0.0764988797148,0,0,0,0,0,0,0,0,0,2,5
868467000000,13026,868467000000,wamv5/gps_wamv_link,0,0,-33.7242668684,150.673687627,-0.078363112939,0,0,0,0,0,0,0,0,0,2,5
868533000000,13027,868533000000,wamv5/gps_wamv_link,0,0,-33.72426705,150.673687674,-0.0805644134377,0,0,0,0,0,0,0,0,0,2,5
868600000000,13028,868600000000,wamv5/gps_wamv_link,0,0,-33.7242672366,150.673687719,-0.083192695749,0,0,0,0,0,0,0,0,0,2,5
868667000000,13029,868667000000,wamv5/gps_wamv_link,0,0,-33.7242674245,150.673687762,-0.0861759120665,0,0,0,0,0,0,0,0,0,2,5
868733000000,13030,868733000000,wamv5/gps_wamv_link,0,0,-33.7242676091,150.673687804,-0.0893478210478,0,0,0,0,0,0,0,0,0,2,5
868800000000,13031,868800000000,wamv5/gps_wamv_link,0,0,-33.7242677939,150.673687846,-0.0926331626141,0,0,0,0,0,0,0,0,0,2,5
868867000000,13032,868867000000,wamv5/gps_wamv_link,0,0,-33.7242679749,150.673687889,-0.0958071682237,0,0,0,0,0,0,0,0,0,2,5
868933000000,13033,868933000000,wamv5/gps_wamv_link,0,0,-33.7242681492,150.673687933,-0.0987074674028,0,0,0,0,0,0,0,0,0,2,5
869000000000,13034,869000000000,wamv5/gps_wamv_link,0,0,-33.7242683229,150.673687981,-0.101396839493,0,0,0,0,0,0,0,0,0,2,5
869067000000,13035,869067000000,wamv5/gps_wamv_link,0,0,-33.7242684948,150.67368803,-0.103894764986,0,0,0,0,0,0,0,0,0,2,5
869133000000,13036,869133000000,wamv5/gps_wamv_link,0,0,-33.7242686636,150.673688079,-0.106285044096,0,0,0,0,0,0,0,0,0,2,5
869200000000,13037,869200000000,wamv5/gps_wamv_link,0,0,-33.7242688351,150.673688128,-0.108767784092,0,0,0,0,0,0,0,0,0,2,5
869267000000,13038,869267000000,wamv5/gps_wamv_link,0,0,-33.7242690072,150.673688174,-0.111407318833,0,0,0,0,0,0,0,0,0,2,5
869333000000,13039,869333000000,wamv5/gps_wamv_link,0,0,-33.724269177,150.673688217,-0.114204788264,0,0,0,0,0,0,0,0,0,2,5
869400000000,13040,869400000000,wamv5/gps_wamv_link,0,0,-33.724269349,150.67368826,-0.117219243508,0,0,0,0,0,0,0,0,0,2,5
869467000000,13041,869467000000,wamv5/gps_wamv_link,0,0,-33.7242695197,150.673688304,-0.120317058281,0,0,0,0,0,0,0,0,0,2,5
869533000000,13042,869533000000,wamv5/gps_wamv_link,0,0,-33.7242696853,150.67368835,-0.123327488578,0,0,0,0,0,0,0,0,0,2,5
869600000000,13043,869600000000,wamv5/gps_wamv_link,0,0,-33.72426985,150.6736884,-0.126238423831,0,0,0,0,0,0,0,0,0,2,5
869667000000,13044,869667000000,wamv5/gps_wamv_link,0,0,-33.7242700108,150.673688452,-0.128967118253,0,0,0,0,0,0,0,0,0,2,5
869733000000,13045,869733000000,wamv5/gps_wamv_link,0,0,-33.7242701661,150.673688505,-0.131520100018,0,0,0,0,0,0,0,0,0,2,5
869800000000,13046,869800000000,wamv5/gps_wamv_link,0,0,-33.7242703218,150.673688558,-0.134074110373,0,0,0,0,0,0,0,0,0,2,5
869867000000,13047,869867000000,wamv5/gps_wamv_link,0,0,-33.7242704776,150.673688609,-0.136703434528,0,0,0,0,0,0,0,0,0,2,5
869933000000,13048,869933000000,wamv5/gps_wamv_link,0,0,-33.7242706325,150.673688658,-0.139453889708,0,0,0,0,0,0,0,0,0,2,5
870000000000,13049,870000000000,wamv5/gps_wamv_link,0,0,-33.7242707918,150.673688706,-0.142446512266,0,0,0,0,0,0,0,0,0,2,5
870067000000,13050,870067000000,wamv5/gps_wamv_link,0,0,-33.7242709523,150.673688752,-0.145611126148,0,0,0,0,0,0,0,0,0,2,5
870133000000,13051,870133000000,wamv5/gps_wamv_link,0,0,-33.7242711103,150.673688796,-0.148794997346,0,0,0,0,0,0,0,0,0,2,5
870200000000,13052,870200000000,wamv5/gps_wamv_link,0,0,-33.7242712692,150.673688841,-0.151932884127,0,0,0,0,0,0,0,0,0,2,5
870267000000,13053,870267000000,wamv5/gps_wamv_link,0,0,-33.7242714254,150.673688886,-0.154797389711,0,0,0,0,0,0,0,0,0,2,5
870333000000,13054,870333000000,wamv5/gps_wamv_link,0,0,-33.7242715766,150.673688932,-0.157214231907,0,0,0,0,0,0,0,0,0,2,5
870400000000,13055,870400000000,wamv5/gps_wamv_link,0,0,-33.7242717277,150.673688981,-0.159191796421,0,0,0,0,0,0,0,0,0,2,5
870467000000,13056,870467000000,wamv5/gps_wamv_link,0,0,-33.7242718776,150.673689029,-0.160702211608,0,0,0,0,0,0,0,0,0,2,5
870533000000,13057,870533000000,wamv5/gps_wamv_link,0,0,-33.7242720251,150.673689077,-0.161796230557,0,0,0,0,0,0,0,0,0,2,5
870600000000,13058,870600000000,wamv5/gps_wamv_link,0,0,-33.7242721759,150.673689122,-0.16258648345,0,0,0,0,0,0,0,0,0,2,5
870667000000,13059,870667000000,wamv5/gps_wamv_link,0,0,-33.724272328,150.673689165,-0.163116682499,0,0,0,0,0,0,0,0,0,2,5
870733000000,13060,870733000000,wamv5/gps_wamv_link,0,0,-33.724272479,150.673689204,-0.163403376511,0,0,0,0,0,0,0,0,0,2,5
870800000000,13061,870800000000,wamv5/gps_wamv_link,0,0,-33.7242726331,150.673689243,-0.163412892322,0,0,0,0,0,0,0,0,0,2,5
870867000000,13062,870867000000,wamv5/gps_wamv_link,0,0,-33.7242727868,150.673689282,-0.163035713142,0,0,0,0,0,0,0,0,0,2,5
870933000000,13063,870933000000,wamv5/gps_wamv_link,0,0,-33.7242729367,150.673689323,-0.162155726699,0,0,0,0,0,0,0,0,0,2,5
871000000000,13064,871000000000,wamv5/gps_wamv_link,0,0,-33.7242730862,150.673689368,-0.16063682326,0,0,0,0,0,0,0,0,0,2,5
871067000000,13065,871067000000,wamv5/gps_wamv_link,0,0,-33.7242732323,150.673689416,-0.158452044305,0,0,0,0,0,0,0,0,0,2,5
871133000000,13066,871133000000,wamv5/gps_wamv_link,0,0,-33.7242733733,150.673689464,-0.155707621141,0,0,0,0,0,0,0,0,0,2,5
871200000000,13067,871200000000,wamv5/gps_wamv_link,0,0,-33.7242735147,150.673689513,-0.15245722401,0,0,0,0,0,0,0,0,0,2,5
871267000000,13068,871267000000,wamv5/gps_wamv_link,0,0,-33.7242736561,150.673689562,-0.148910685008,0,0,0,0,0,0,0,0,0,2,5
871333000000,13069,871333000000,wamv5/gps_wamv_link,0,0,-33.7242737968,150.67368961,-0.145285867714,0,0,0,0,0,0,0,0,0,2,5
871400000000,13070,871400000000,wamv5/gps_wamv_link,0,0,-33.7242739416,150.673689659,-0.141592033354,0,0,0,0,0,0,0,0,0,2,5
871467000000,13071,871467000000,wamv5/gps_wamv_link,0,0,-33.7242740877,150.673689708,-0.137941972579,0,0,0,0,0,0,0,0,0,2,5
871533000000,13072,871533000000,wamv5/gps_wamv_link,0,0,-33.7242742312,150.673689756,-0.134381292356,0,0,0,0,0,0,0,0,0,2,5
871600000000,13073,871600000000,wamv5/gps_wamv_link,0,0,-33.724274375,150.673689806,-0.13074560921,0,0,0,0,0,0,0,0,0,2,5
871667000000,13074,871667000000,wamv5/gps_wamv_link,0,0,-33.7242745163,150.673689858,-0.127022384827,0,0,0,0,0,0,0,0,0,2,5
871733000000,13075,871733000000,wamv5/gps_wamv_link,0,0,-33.7242746531,150.673689912,-0.123239591157,0,0,0,0,0,0,0,0,0,2,5
871800000000,13076,871800000000,wamv5/gps_wamv_link,0,0,-33.7242747899,150.673689971,-0.119316891117,0,0,0,0,0,0,0,0,0,2,5
871867000000,13077,871867000000,wamv5/gps_wamv_link,0,0,-33.7242749257,150.673690032,-0.115407546152,0,0,0,0,0,0,0,0,0,2,5
871933000000,13078,871933000000,wamv5/gps_wamv_link,0,0,-33.7242750592,150.673690091,-0.111695408795,0,0,0,0,0,0,0,0,0,2,5
872000000000,13079,872000000000,wamv5/gps_wamv_link,0,0,-33.7242751956,150.67369015,-0.108191239428,0,0,0,0,0,0,0,0,0,2,5
872067000000,13080,872067000000,wamv5/gps_wamv_link,0,0,-33.7242753336,150.673690206,-0.105043853935,0,0,0,0,0,0,0,0,0,2,5
872133000000,13081,872133000000,wamv5/gps_wamv_link,0,0,-33.7242754713,150.673690259,-0.102328928921,0,0,0,0,0,0,0,0,0,2,5
872200000000,13082,872200000000,wamv5/gps_wamv_link,0,0,-33.7242756126,150.673690313,-0.0999359094253,0,0,0,0,0,0,0,0,0,2,5
872267000000,13083,872267000000,wamv5/gps_wamv_link,0,0,-33.7242757546,150.673690367,-0.0978152936871,0,0,0,0,0,0,0,0,0,2,5
872333000000,13084,872333000000,wamv5/gps_wamv_link,0,0,-33.7242758939,150.673690422,-0.0958623174441,0,0,0,0,0,0,0,0,0,2,5
872400000000,13085,872400000000,wamv5/gps_wamv_link,0,0,-33.7242760336,150.67369048,-0.0938906054041,0,0,0,0,0,0,0,0,0,2,5
872467000000,13086,872467000000,wamv5/gps_wamv_link,0,0,-33.7242761709,150.67369054,-0.0918530140798,0,0,0,0,0,0,0,0,0,2,5
872533000000,13087,872533000000,wamv5/gps_wamv_link,0,0,-33.7242763043,150.673690599,-0.0897793997015,0,0,0,0,0,0,0,0,0,2,5
872600000000,13088,872600000000,wamv5/gps_wamv_link,0,0,-33.7242764388,150.673690659,-0.0876710308967,0,0,0,0,0,0,0,0,0,2,5
872667000000,13089,872667000000,wamv5/gps_wamv_link,0,0,-33.7242765742,150.673690719,-0.0856591257058,0,0,0,0,0,0,0,0,0,2,5
872733000000,13090,872733000000,wamv5/gps_wamv_link,0,0,-33.7242767098,150.673690777,-0.0838681080981,0,0,0,0,0,0,0,0,0,2,5
872800000000,13091,872800000000,wamv5/gps_wamv_link,0,0,-33.72427685,150.673690835,-0.0823102703976,0,0,0,0,0,0,0,0,0,2,5
872867000000,13092,872867000000,wamv5/gps_wamv_link,0,0,-33.7242769919,150.673690893,-0.0810284046679,0,0,0,0,0,0,0,0,0,2,5
872933000000,13093,872933000000,wamv5/gps_wamv_link,0,0,-33.7242771317,150.67369095,-0.0799889923468,0,0,0,0,0,0,0,0,0,2,5
873000000000,13094,873000000000,wamv5/gps_wamv_link,0,0,-33.7242772729,150.673691007,-0.0790658206001,0,0,0,0,0,0,0,0,0,2,5
873067000000,13095,873067000000,wamv5/gps_wamv_link,0,0,-33.7242774124,150.673691066,-0.0781755421638,0,0,0,0,0,0,0,0,0,2,5
873133000000,13096,873133000000,wamv5/gps_wamv_link,0,0,-33.7242775479,150.673691127,-0.0772729390292,0,0,0,0,0,0,0,0,0,2,5
873200000000,13097,873200000000,wamv5/gps_wamv_link,0,0,-33.7242776836,150.673691191,-0.0763437360902,0,0,0,0,0,0,0,0,0,2,5
873267000000,13098,873267000000,wamv5/gps_wamv_link,0,0,-33.7242778184,150.673691257,-0.0754878445136,0,0,0,0,0,0,0,0,0,2,5
873333000000,13099,873333000000,wamv5/gps_wamv_link,0,0,-33.7242779512,150.673691323,-0.0748459411475,0,0,0,0,0,0,0,0,0,2,5
873400000000,13100,873400000000,wamv5/gps_wamv_link,0,0,-33.724278087,150.673691388,-0.0745384745085,0,0,0,0,0,0,0,0,0,2,5
873467000000,13101,873467000000,wamv5/gps_wamv_link,0,0,-33.7242782243,150.673691453,-0.074694824236,0,0,0,0,0,0,0,0,0,2,5
873533000000,13102,873533000000,wamv5/gps_wamv_link,0,0,-33.724278361,150.673691515,-0.075368255788,0,0,0,0,0,0,0,0,0,2,5
873600000000,13103,873600000000,wamv5/gps_wamv_link,0,0,-33.7242785012,150.673691579,-0.0765803089436,0,0,0,0,0,0,0,0,0,2,5
873667000000,13104,873667000000,wamv5/gps_wamv_link,0,0,-33.724278642,150.673691643,-0.0782671925354,0,0,0,0,0,0,0,0,0,2,5
873733000000,13105,873733000000,wamv5/gps_wamv_link,0,0,-33.72427878,150.673691707,-0.080300450027,0,0,0,0,0,0,0,0,0,2,5
873800000000,13106,873800000000,wamv5/gps_wamv_link,0,0,-33.724278918,150.673691775,-0.0826492488454,0,0,0,0,0,0,0,0,0,2,5
873867000000,13107,873867000000,wamv5/gps_wamv_link,0,0,-33.7242790533,150.673691845,-0.0852265230881,0,0,0,0,0,0,0,0,0,2,5
873933000000,13108,873933000000,wamv5/gps_wamv_link,0,0,-33.7242791847,150.673691915,-0.08798350891,0,0,0,0,0,0,0,0,0,2,5
874000000000,13109,874000000000,wamv5/gps_wamv_link,0,0,-33.7242793172,150.673691987,-0.0910426298084,0,0,0,0,0,0,0,0,0,2,5
874067000000,13110,874067000000,wamv5/gps_wamv_link,0,0,-33.7242794504,150.673692058,-0.0944214954198,0,0,0,0,0,0,0,0,0,2,5
874133000000,13111,874133000000,wamv5/gps_wamv_link,0,0,-33.7242795836,150.673692127,-0.0981087529127,0,0,0,0,0,0,0,0,0,2,5
874200000000,13112,874200000000,wamv5/gps_wamv_link,0,0,-33.7242797212,150.673692196,-0.102229703663,0,0,0,0,0,0,0,0,0,2,5
874267000000,13113,874267000000,wamv5/gps_wamv_link,0,0,-33.7242798607,150.673692263,-0.10669314716,0,0,0,0,0,0,0,0,0,2,5
874333000000,13114,874333000000,wamv5/gps_wamv_link,0,0,-33.7242799989,150.673692327,-0.111327084932,0,0,0,0,0,0,0,0,0,2,5
874400000000,13115,874400000000,wamv5/gps_wamv_link,0,0,-33.7242801386,150.673692393,-0.116118456586,0,0,0,0,0,0,0,0,0,2,5
874467000000,13116,874467000000,wamv5/gps_wamv_link,0,0,-33.7242802768,150.673692459,-0.120819833852,0,0,0,0,0,0,0,0,0,2,5
874533000000,13117,874533000000,wamv5/gps_wamv_link,0,0,-33.724280411,150.673692525,-0.125211460234,0,0,0,0,0,0,0,0,0,2,5
874600000000,13118,874600000000,wamv5/gps_wamv_link,0,0,-33.7242805459,150.673692594,-0.129333389695,0,0,0,0,0,0,0,0,0,2,5
874667000000,13119,874667000000,wamv5/gps_wamv_link,0,0,-33.7242806798,150.673692663,-0.133101607286,0,0,0,0,0,0,0,0,0,2,5
874733000000,13120,874733000000,wamv5/gps_wamv_link,0,0,-33.7242808113,150.673692731,-0.136511035017,0,0,0,0,0,0,0,0,0,2,5
874800000000,13121,874800000000,wamv5/gps_wamv_link,0,0,-33.7242809456,150.673692799,-0.139732873007,0,0,0,0,0,0,0,0,0,2,5
874867000000,13122,874867000000,wamv5/gps_wamv_link,0,0,-33.7242810815,150.673692865,-0.14277432461,0,0,0,0,0,0,0,0,0,2,5
874933000000,13123,874933000000,wamv5/gps_wamv_link,0,0,-33.724281217,150.67369293,-0.145618890691,0,0,0,0,0,0,0,0,0,2,5
875000000000,13124,875000000000,wamv5/gps_wamv_link,0,0,-33.7242813561,150.673692995,-0.14832518553,0,0,0,0,0,0,0,0,0,2,5
875067000000,13125,875067000000,wamv5/gps_wamv_link,0,0,-33.7242814959,150.67369306,-0.15077085183,0,0,0,0,0,0,0,0,0,2,5
875133000000,13126,875133000000,wamv5/gps_wamv_link,0,0,-33.7242816327,150.673693126,-0.152820613481,0,0,0,0,0,0,0,0,0,2,5
875200000000,13127,875200000000,wamv5/gps_wamv_link,0,0,-33.7242817697,150.673693194,-0.154441636838,0,0,0,0,0,0,0,0,0,2,5
875267000000,13128,875267000000,wamv5/gps_wamv_link,0,0,-33.724281904,150.673693265,-0.155558659712,0,0,0,0,0,0,0,0,0,2,5
875333000000,13129,875333000000,wamv5/gps_wamv_link,0,0,-33.7242820337,150.673693336,-0.156198232703,0,0,0,0,0,0,0,0,0,2,5
875400000000,13130,875400000000,wamv5/gps_wamv_link,0,0,-33.724282164,150.673693409,-0.156473258572,0,0,0,0,0,0,0,0,0,2,5
875467000000,13131,875467000000,wamv5/gps_wamv_link,0,0,-33.7242822947,150.673693484,-0.156496552001,0,0,0,0,0,0,0,0,0,2,5
875533000000,13132,875533000000,wamv5/gps_wamv_link,0,0,-33.7242824253,150.673693557,-0.156394217491,0,0,0,0,0,0,0,0,0,2,5
875600000000,13133,875600000000,wamv5/gps_wamv_link,0,0,-33.7242825601,150.67369363,-0.1562580464,0,0,0,0,0,0,0,0,0,2,5
875667000000,13134,875667000000,wamv5/gps_wamv_link,0,0,-33.7242826965,150.673693703,-0.156136179121,0,0,0,0,0,0,0,0,0,2,5
875733000000,13135,875733000000,wamv5/gps_wamv_link,0,0,-33.7242828312,150.673693775,-0.156016972926,0,0,0,0,0,0,0,0,0,2,5
875800000000,13136,875800000000,wamv5/gps_wamv_link,0,0,-33.7242829671,150.673693848,-0.155828346852,0,0,0,0,0,0,0,0,0,2,5
875867000000,13137,875867000000,wamv5/gps_wamv_link,0,0,-33.7242831013,150.673693922,-0.155476823446,0,0,0,0,0,0,0,0,0,2,5
875933000000,13138,875933000000,wamv5/gps_wamv_link,0,0,-33.7242832313,150.673693998,-0.154892511763,0,0,0,0,0,0,0,0,0,2,5
876000000000,13139,876000000000,wamv5/gps_wamv_link,0,0,-33.724283362,150.673694076,-0.154023887044,0,0,0,0,0,0,0,0,0,2,5
876067000000,13140,876067000000,wamv5/gps_wamv_link,0,0,-33.724283492,150.673694155,-0.152903955829,0,0,0,0,0,0,0,0,0,2,5
876133000000,13141,876133000000,wamv5/gps_wamv_link,0,0,-33.7242836205,150.673694232,-0.151622037864,0,0,0,0,0,0,0,0,0,2,5
876200000000,13142,876200000000,wamv5/gps_wamv_link,0,0,-33.7242837519,150.673694309,-0.150219828841,0,0,0,0,0,0,0,0,0,2,5
876267000000,13143,876267000000,wamv5/gps_wamv_link,0,0,-33.7242838848,150.673694384,-0.14877662059,0,0,0,0,0,0,0,0,0,2,5
876333000000,13144,876333000000,wamv5/gps_wamv_link,0,0,-33.7242840175,150.673694457,-0.147334187871,0,0,0,0,0,0,0,0,0,2,5
876400000000,13145,876400000000,wamv5/gps_wamv_link,0,0,-33.7242841539,150.67369453,-0.145815803297,0,0,0,0,0,0,0,0,0,2,5
876467000000,13146,876467000000,wamv5/gps_wamv_link,0,0,-33.724284291,150.673694603,-0.144157578319,0,0,0,0,0,0,0,0,0,2,5
876533000000,13147,876533000000,wamv5/gps_wamv_link,0,0,-33.7242844258,150.673694677,-0.142272542561,0,0,0,0,0,0,0,0,0,2,5
876600000000,13148,876600000000,wamv5/gps_wamv_link,0,0,-33.7242845611,150.673694755,-0.139991933248,0,0,0,0,0,0,0,0,0,2,5
876667000000,13149,876667000000,wamv5/gps_wamv_link,0,0,-33.7242846943,150.673694833,-0.137274681583,0,0,0,0,0,0,0,0,0,2,5
876733000000,13150,876733000000,wamv5/gps_wamv_link,0,0,-33.7242848235,150.673694912,-0.134173328574,0,0,0,0,0,0,0,0,0,2,5
876800000000,13151,876800000000,wamv5/gps_wamv_link,0,0,-33.7242849541,150.673694991,-0.130660308828,0,0,0,0,0,0,0,0,0,2,5
876867000000,13152,876867000000,wamv5/gps_wamv_link,0,0,-33.7242850856,150.67369507,-0.126889369967,0,0,0,0,0,0,0,0,0,2,5
876933000000,13153,876933000000,wamv5/gps_wamv_link,0,0,-33.724285217,150.673695148,-0.123036349163,0,0,0,0,0,0,0,0,0,2,5
877000000000,13154,877000000000,wamv5/gps_wamv_link,0,0,-33.7242853526,150.673695227,-0.119077334744,0,0,0,0,0,0,0,0,0,2,5
877067000000,13155,877067000000,wamv5/gps_wamv_link,0,0,-33.7242854898,150.673695305,-0.115123743199,0,0,0,0,0,0,0,0,0,2,5
877133000000,13156,877133000000,wamv5/gps_wamv_link,0,0,-33.7242856255,150.673695383,-0.111239939685,0,0,0,0,0,0,0,0,0,2,5
877200000000,13157,877200000000,wamv5/gps_wamv_link,0,0,-33.7242857623,150.673695464,-0.107274715495,0,0,0,0,0,0,0,0,0,2,5
877267000000,13158,877267000000,wamv5/gps_wamv_link,0,0,-33.7242858974,150.673695546,-0.103244307995,0,0,0,0,0,0,0,0,0,2,5
877333000000,13159,877333000000,wamv5/gps_wamv_link,0,0,-33.7242860283,150.67369563,-0.0991948516283,0,0,0,0,0,0,0,0,0,2,5
877400000000,13160,877400000000,wamv5/gps_wamv_link,0,0,-33.7242861595,150.673695718,-0.0950386983002,0,0,0,0,0,0,0,0,0,2,5
877467000000,13161,877467000000,wamv5/gps_wamv_link,0,0,-33.7242862896,150.673695807,-0.0909337140614,0,0,0,0,0,0,0,0,0,2,5
877533000000,13162,877533000000,wamv5/gps_wamv_link,0,0,-33.7242864178,150.673695896,-0.0870737770495,0,0,0,0,0,0,0,0,0,2,5
877600000000,13163,877600000000,wamv5/gps_wamv_link,0,0,-33.7242865488,150.673695985,-0.0834852641998,0,0,0,0,0,0,0,0,0,2,5
877667000000,13164,877667000000,wamv5/gps_wamv_link,0,0,-33.7242866811,150.673696074,-0.0803522211819,0,0,0,0,0,0,0,0,0,2,5
877733000000,13165,877733000000,wamv5/gps_wamv_link,0,0,-33.7242868126,150.673696161,-0.0777879108302,0,0,0,0,0,0,0,0,0,2,5
877800000000,13166,877800000000,wamv5/gps_wamv_link,0,0,-33.7242869472,150.673696249,-0.0757349345686,0,0,0,0,0,0,0,0,0,2,5
877867000000,13167,877867000000,wamv5/gps_wamv_link,0,0,-33.724287082,150.673696339,-0.0742022691507,0,0,0,0,0,0,0,0,0,2,5
877933000000,13168,877933000000,wamv5/gps_wamv_link,0,0,-33.724287214,150.673696428,-0.073131938976,0,0,0,0,0,0,0,0,0,2,5
878000000000,13169,878000000000,wamv5/gps_wamv_link,0,0,-33.7242873465,150.673696521,-0.0724141442257,0,0,0,0,0,0,0,0,0,2,5
878067000000,13170,878067000000,wamv5/gps_wamv_link,0,0,-33.7242874771,150.673696614,-0.0720134086197,0,0,0,0,0,0,0,0,0,2,5
878133000000,13171,878133000000,wamv5/gps_wamv_link,0,0,-33.724287604,150.673696707,-0.0719147821995,0,0,0,0,0,0,0,0,0,2,5
878200000000,13172,878200000000,wamv5/gps_wamv_link,0,0,-33.7242877319,150.673696802,-0.0721381821653,0,0,0,0,0,0,0,0,0,2,5
878267000000,13173,878267000000,wamv5/gps_wamv_link,0,0,-33.7242878601,150.673696896,-0.0727296483114,0,0,0,0,0,0,0,0,0,2,5
878333000000,13174,878333000000,wamv5/gps_wamv_link,0,0,-33.7242879878,150.673696987,-0.0737095177942,0,0,0,0,0,0,0,0,0,2,5
878400000000,13175,878400000000,wamv5/gps_wamv_link,0,0,-33.7242881194,150.67369708,-0.0751216259322,0,0,0,0,0,0,0,0,0,2,5
878467000000,13176,878467000000,wamv5/gps_wamv_link,0,0,-33.7242882528,150.673697172,-0.0769305544064,0,0,0,0,0,0,0,0,0,2,5
878533000000,13177,878533000000,wamv5/gps_wamv_link,0,0,-33.7242883851,150.673697262,-0.0790335365987,0,0,0,0,0,0,0,0,0,2,5
878600000000,13178,878600000000,wamv5/gps_wamv_link,0,0,-33.7242885191,150.673697353,-0.0813876090779,0,0,0,0,0,0,0,0,0,2,5
878667000000,13179,878667000000,wamv5/gps_wamv_link,0,0,-33.7242886519,150.673697445,-0.0838382595645,0,0,0,0,0,0,0,0,0,2,5
878733000000,13180,878733000000,wamv5/gps_wamv_link,0,0,-33.7242887809,150.673697537,-0.0862407401093,0,0,0,0,0,0,0,0,0,2,5
878800000000,13181,878800000000,wamv5/gps_wamv_link,0,0,-33.7242889106,150.673697632,-0.0886043085662,0,0,0,0,0,0,0,0,0,2,5
878867000000,13182,878867000000,wamv5/gps_wamv_link,0,0,-33.7242890392,150.673697727,-0.090888587835,0,0,0,0,0,0,0,0,0,2,5
878933000000,13183,878933000000,wamv5/gps_wamv_link,0,0,-33.7242891654,150.673697822,-0.0931047974311,0,0,0,0,0,0,0,0,0,2,5
879000000000,13184,879000000000,wamv5/gps_wamv_link,0,0,-33.724289294,150.673697918,-0.0953862519276,0,0,0,0,0,0,0,0,0,2,5
879067000000,13185,879067000000,wamv5/gps_wamv_link,0,0,-33.7242894235,150.673698014,-0.0977635914282,0,0,0,0,0,0,0,0,0,2,5
879133000000,13186,879133000000,wamv5/gps_wamv_link,0,0,-33.7242895521,150.673698108,-0.100238052245,0,0,0,0,0,0,0,0,0,2,5
879200000000,13187,879200000000,wamv5/gps_wamv_link,0,0,-33.7242896833,150.673698204,-0.102886005039,0,0,0,0,0,0,0,0,0,2,5
879267000000,13188,879267000000,wamv5/gps_wamv_link,0,0,-33.7242898148,150.6736983,-0.105630572847,0,0,0,0,0,0,0,0,0,2,5
879333000000,13189,879333000000,wamv5/gps_wamv_link,0,0,-33.7242899436,150.673698396,-0.108363488052,0,0,0,0,0,0,0,0,0,2,5
879400000000,13190,879400000000,wamv5/gps_wamv_link,0,0,-33.7242900715,150.673698494,-0.111106486304,0,0,0,0,0,0,0,0,0,2,5
879467000000,13191,879467000000,wamv5/gps_wamv_link,0,0,-33.7242901965,150.673698593,-0.113778094268,0,0,0,0,0,0,0,0,0,2,5
879533000000,13192,879533000000,wamv5/gps_wamv_link,0,0,-33.7242903175,150.673698692,-0.116345714383,0,0,0,0,0,0,0,0,0,2,5
879600000000,13193,879600000000,wamv5/gps_wamv_link,0,0,-33.7242904391,150.673698794,-0.118940913231,0,0,0,0,0,0,0,0,0,2,5
879667000000,13194,879667000000,wamv5/gps_wamv_link,0,0,-33.7242905607,150.673698897,-0.121605593353,0,0,0,0,0,0,0,0,0,2,5
879733000000,13195,879733000000,wamv5/gps_wamv_link,0,0,-33.7242906813,150.673698999,-0.124377324121,0,0,0,0,0,0,0,0,0,2,5
879800000000,13196,879800000000,wamv5/gps_wamv_link,0,0,-33.7242908051,150.673699103,-0.127395456296,0,0,0,0,0,0,0,0,0,2,5
879867000000,13197,879867000000,wamv5/gps_wamv_link,0,0,-33.7242909303,150.673699206,-0.130632416055,0,0,0,0,0,0,0,0,0,2,5
879933000000,13198,879933000000,wamv5/gps_wamv_link,0,0,-33.7242910541,150.673699307,-0.133997794347,0,0,0,0,0,0,0,0,0,2,5
880000000000,13199,880000000000,wamv5/gps_wamv_link,0,0,-33.7242911785,150.673699409,-0.137510867234,0,0,0,0,0,0,0,0,0,2,5
880067000000,13200,880067000000,wamv5/gps_wamv_link,0,0,-33.7242913006,150.67369951,-0.141007045419,0,0,0,0,0,0,0,0,0,2,5
880133000000,13201,880133000000,wamv5/gps_wamv_link,0,0,-33.7242914183,150.67369961,-0.144324718087,0,0,0,0,0,0,0,0,0,2,5
880200000000,13202,880200000000,wamv5/gps_wamv_link,0,0,-33.7242915352,150.673699711,-0.147484807428,0,0,0,0,0,0,0,0,0,2,5
880267000000,13203,880267000000,wamv5/gps_wamv_link,0,0,-33.7242916508,150.673699812,-0.150398850865,0,0,0,0,0,0,0,0,0,2,5
880333000000,13204,880333000000,wamv5/gps_wamv_link,0,0,-33.724291765,150.673699911,-0.153033547908,0,0,0,0,0,0,0,0,0,2,5
880400000000,13205,880400000000,wamv5/gps_wamv_link,0,0,-33.7242918817,150.67370001,-0.155498775594,0,0,0,0,0,0,0,0,0,2,5
880467000000,13206,880467000000,wamv5/gps_wamv_link,0,0,-33.7242919999,150.673700108,-0.15777592222,0,0,0,0,0,0,0,0,0,2,5
880533000000,13207,880533000000,wamv5/gps_wamv_link,0,0,-33.7242921182,150.673700202,-0.159831258382,0,0,0,0,0,0,0,0,0,2,5
880600000000,13208,880600000000,wamv5/gps_wamv_link,0,0,-33.7242922386,150.673700295,-0.161686460735,0,0,0,0,0,0,0,0,0,2,5
880667000000,13209,880667000000,wamv5/gps_wamv_link,0,0,-33.7242923585,150.673700389,-0.163221576468,0,0,0,0,0,0,0,0,0,2,5
880733000000,13210,880733000000,wamv5/gps_wamv_link,0,0,-33.7242924751,150.67370048,-0.164309935865,0,0,0,0,0,0,0,0,0,2,5
880800000000,13211,880800000000,wamv5/gps_wamv_link,0,0,-33.7242925911,150.673700573,-0.164878153099,0,0,0,0,0,0,0,0,0,2,5
880867000000,13212,880867000000,wamv5/gps_wamv_link,0,0,-33.7242927049,150.673700666,-0.16483640429,0,0,0,0,0,0,0,0,0,2,5
880933000000,13213,880933000000,wamv5/gps_wamv_link,0,0,-33.724292816,150.673700757,-0.164192214292,0,0,0,0,0,0,0,0,0,2,5
881000000000,13214,881000000000,wamv5/gps_wamv_link,0,0,-33.7242929282,150.67370085,-0.162983170398,0,0,0,0,0,0,0,0,0,2,5
881067000000,13215,881067000000,wamv5/gps_wamv_link,0,0,-33.7242930407,150.673700941,-0.161309054735,0,0,0,0,0,0,0,0,0,2,5
881133000000,13216,881133000000,wamv5/gps_wamv_link,0,0,-33.7242931528,150.673701032,-0.159301655237,0,0,0,0,0,0,0,0,0,2,5
881200000000,13217,881200000000,wamv5/gps_wamv_link,0,0,-33.7242932682,150.673701124,-0.156976334843,0,0,0,0,0,0,0,0,0,2,5
881267000000,13218,881267000000,wamv5/gps_wamv_link,0,0,-33.724293385,150.673701215,-0.154402884488,0,0,0,0,0,0,0,0,0,2,5
881333000000,13219,881333000000,wamv5/gps_wamv_link,0,0,-33.7242935008,150.673701305,-0.15163237565,0,0,0,0,0,0,0,0,0,2,5
881400000000,13220,881400000000,wamv5/gps_wamv_link,0,0,-33.7242936181,150.673701396,-0.148567290003,0,0,0,0,0,0,0,0,0,2,5
881467000000,13221,881467000000,wamv5/gps_wamv_link,0,0,-33.7242937344,150.673701487,-0.145234744865,0,0,0,0,0,0,0,0,0,2,5
881533000000,13222,881533000000,wamv5/gps_wamv_link,0,0,-33.7242938475,150.673701578,-0.14169990299,0,0,0,0,0,0,0,0,0,2,5
881600000000,13223,881600000000,wamv5/gps_wamv_link,0,0,-33.7242939612,150.673701671,-0.137901244894,0,0,0,0,0,0,0,0,0,2,5
881667000000,13224,881667000000,wamv5/gps_wamv_link,0,0,-33.7242940741,150.673701765,-0.133972247029,0,0,0,0,0,0,0,0,0,2,5
881733000000,13225,881733000000,wamv5/gps_wamv_link,0,0,-33.7242941853,150.673701859,-0.130074989106,0,0,0,0,0,0,0,0,0,2,5
881800000000,13226,881800000000,wamv5/gps_wamv_link,0,0,-33.7242942988,150.673701953,-0.126194290086,0,0,0,0,0,0,0,0,0,2,5
881867000000,13227,881867000000,wamv5/gps_wamv_link,0,0,-33.7242944136,150.673702046,-0.122475709487,0,0,0,0,0,0,0,0,0,2,5
881933000000,13228,881933000000,wamv5/gps_wamv_link,0,0,-33.724294528,150.673702136,-0.119025761066,0,0,0,0,0,0,0,0,0,2,5
882000000000,13229,882000000000,wamv5/gps_wamv_link,0,0,-33.7242946455,150.673702226,-0.115759194457,0,0,0,0,0,0,0,0,0,2,5
882067000000,13230,882067000000,wamv5/gps_wamv_link,0,0,-33.7242947638,150.673702316,-0.112713441138,0,0,0,0,0,0,0,0,0,2,5
882133000000,13231,882133000000,wamv5/gps_wamv_link,0,0,-33.7242948804,150.673702405,-0.109886390969,0,0,0,0,0,0,0,0,0,2,5
882200000000,13232,882200000000,wamv5/gps_wamv_link,0,0,-33.7242949979,150.673702495,-0.107139153873,0,0,0,0,0,0,0,0,0,2,5
882267000000,13233,882267000000,wamv5/gps_wamv_link,0,0,-33.7242951144,150.673702584,-0.10447130687,0,0,0,0,0,0,0,0,0,2,5
882333000000,13234,882333000000,wamv5/gps_wamv_link,0,0,-33.724295228,150.673702671,-0.10190162733,0,0,0,0,0,0,0,0,0,2,5
882400000000,13235,882400000000,wamv5/gps_wamv_link,0,0,-33.724295343,150.673702758,-0.0993611558404,0,0,0,0,0,0,0,0,0,2,5
882467000000,13236,882467000000,wamv5/gps_wamv_link,0,0,-33.7242954584,150.673702843,-0.0969198615796,0,0,0,0,0,0,0,0,0,2,5
882533000000,13237,882533000000,wamv5/gps_wamv_link,0,0,-33.7242955735,150.673702926,-0.0946493224433,0,0,0,0,0,0,0,0,0,2,5
882600000000,13238,882600000000,wamv5/gps_wamv_link,0,0,-33.724295692,150.673703009,-0.0925107068027,0,0,0,0,0,0,0,0,0,2,5
882667000000,13239,882667000000,wamv5/gps_wamv_link,0,0,-33.7242958121,150.673703091,-0.0905481064805,0,0,0,0,0,0,0,0,0,2,5
882733000000,13240,882733000000,wamv5/gps_wamv_link,0,0,-33.7242959314,150.67370317,-0.0887660848567,0,0,0,0,0,0,0,0,0,2,5
882800000000,13241,882800000000,wamv5/gps_wamv_link,0,0,-33.7242960525,150.673703249,-0.0870619549696,0,0,0,0,0,0,0,0,0,2,5
882867000000,13242,882867000000,wamv5/gps_wamv_link,0,0,-33.7242961727,150.673703327,-0.0854012854673,0,0,0,0,0,0,0,0,0,2,5
882933000000,13243,882933000000,wamv5/gps_wamv_link,0,0,-33.72429629,150.673703404,-0.0837567660146,0,0,0,0,0,0,0,0,0,2,5
883000000000,13244,883000000000,wamv5/gps_wamv_link,0,0,-33.7242964077,150.673703483,-0.0820584104965,0,0,0,0,0,0,0,0,0,2,5
883067000000,13245,883067000000,wamv5/gps_wamv_link,0,0,-33.7242965246,150.673703562,-0.0803537898587,0,0,0,0,0,0,0,0,0,2,5
883133000000,13246,883133000000,wamv5/gps_wamv_link,0,0,-33.7242966394,150.67370364,-0.0787292592156,0,0,0,0,0,0,0,0,0,2,5
883200000000,13247,883200000000,wamv5/gps_wamv_link,0,0,-33.7242967563,150.673703718,-0.0772209099921,0,0,0,0,0,0,0,0,0,2,5
883267000000,13248,883267000000,wamv5/gps_wamv_link,0,0,-33.7242968741,150.673703796,-0.0759434056338,0,0,0,0,0,0,0,0,0,2,5
883333000000,13249,883333000000,wamv5/gps_wamv_link,0,0,-33.7242969911,150.673703871,-0.074981230525,0,0,0,0,0,0,0,0,0,2,5
883400000000,13250,883400000000,wamv5/gps_wamv_link,0,0,-33.7242971107,150.673703948,-0.0743459770503,0,0,0,0,0,0,0,0,0,2,5
883467000000,13251,883467000000,wamv5/gps_wamv_link,0,0,-33.7242972307,150.673704024,-0.0740603266018,0,0,0,0,0,0,0,0,0,2,5
883533000000,13252,883533000000,wamv5/gps_wamv_link,0,0,-33.7242973484,150.673704101,-0.0740999707217,0,0,0,0,0,0,0,0,0,2,5
883600000000,13253,883600000000,wamv5/gps_wamv_link,0,0,-33.7242974666,150.673704178,-0.0744377907616,0,0,0,0,0,0,0,0,0,2,5
883667000000,13254,883667000000,wamv5/gps_wamv_link,0,0,-33.7242975832,150.673704256,-0.0750621520052,0,0,0,0,0,0,0,0,0,2,5
883733000000,13255,883733000000,wamv5/gps_wamv_link,0,0,-33.7242976967,150.673704332,-0.0759731640371,0,0,0,0,0,0,0,0,0,2,5
883800000000,13256,883800000000,wamv5/gps_wamv_link,0,0,-33.7242978111,150.67370441,-0.0772433835126,0,0,0,0,0,0,0,0,0,2,5
883867000000,13257,883867000000,wamv5/gps_wamv_link,0,0,-33.7242979256,150.673704486,-0.0789221780968,0,0,0,0,0,0,0,0,0,2,5
883933000000,13258,883933000000,wamv5/gps_wamv_link,0,0,-33.7242980393,150.673704562,-0.0810299760373,0,0,0,0,0,0,0,0,0,2,5
884000000000,13259,884000000000,wamv5/gps_wamv_link,0,0,-33.724298156,150.673704637,-0.0836624818038,0,0,0,0,0,0,0,0,0,2,5
884067000000,13260,884067000000,wamv5/gps_wamv_link,0,0,-33.724298274,150.67370471,-0.0867861902574,0,0,0,0,0,0,0,0,0,2,5
884133000000,13261,884133000000,wamv5/gps_wamv_link,0,0,-33.7242983911,150.673704781,-0.0902965377903,0,0,0,0,0,0,0,0,0,2,5
884200000000,13262,884200000000,wamv5/gps_wamv_link,0,0,-33.7242985099,150.673704852,-0.0942140253798,0,0,0,0,0,0,0,0,0,2,5
884267000000,13263,884267000000,wamv5/gps_wamv_link,0,0,-33.7242986283,150.673704921,-0.0983785733707,0,0,0,0,0,0,0,0,0,2,5
884333000000,13264,884333000000,wamv5/gps_wamv_link,0,0,-33.7242987439,150.673704988,-0.102615014139,0,0,0,0,0,0,0,0,0,2,5
884400000000,13265,884400000000,wamv5/gps_wamv_link,0,0,-33.7242988602,150.673705056,-0.106963541558,0,0,0,0,0,0,0,0,0,2,5
884467000000,13266,884467000000,wamv5/gps_wamv_link,0,0,-33.7242989758,150.673705123,-0.111303832216,0,0,0,0,0,0,0,0,0,2,5
884533000000,13267,884533000000,wamv5/gps_wamv_link,0,0,-33.7242990896,150.673705187,-0.115545425441,0,0,0,0,0,0,0,0,0,2,5
884600000000,13268,884600000000,wamv5/gps_wamv_link,0,0,-33.7242992056,150.67370525,-0.119808053795,0,0,0,0,0,0,0,0,0,2,5
884667000000,13269,884667000000,wamv5/gps_wamv_link,0,0,-33.7242993227,150.673705312,-0.124019654827,0,0,0,0,0,0,0,0,0,2,5
884733000000,13270,884733000000,wamv5/gps_wamv_link,0,0,-33.7242994393,150.67370537,-0.128097905837,0,0,0,0,0,0,0,0,0,2,5
884800000000,13271,884800000000,wamv5/gps_wamv_link,0,0,-33.7242995588,150.673705428,-0.13212199199,0,0,0,0,0,0,0,0,0,2,5
884867000000,13272,884867000000,wamv5/gps_wamv_link,0,0,-33.7242996788,150.673705485,-0.135959159158,0,0,0,0,0,0,0,0,0,2,5
884933000000,13273,884933000000,wamv5/gps_wamv_link,0,0,-33.7242997967,150.673705541,-0.139471713371,0,0,0,0,0,0,0,0,0,2,5
885000000000,13274,885000000000,wamv5/gps_wamv_link,0,0,-33.7242999153,150.673705597,-0.142682433108,0,0,0,0,0,0,0,0,0,2,5
885067000000,13275,885067000000,wamv5/gps_wamv_link,0,0,-33.7243000324,150.673705653,-0.145475733213,0,0,0,0,0,0,0,0,0,2,5
885133000000,13276,885133000000,wamv5/gps_wamv_link,0,0,-33.7243001463,150.673705708,-0.147800482916,0,0,0,0,0,0,0,0,0,2,5
885200000000,13277,885200000000,wamv5/gps_wamv_link,0,0,-33.724300261,150.673705763,-0.14975083395,0,0,0,0,0,0,0,0,0,2,5
885267000000,13278,885267000000,wamv5/gps_wamv_link,0,0,-33.7243003755,150.673705819,-0.15134399892,0,0,0,0,0,0,0,0,0,2,5
885333000000,13279,885333000000,wamv5/gps_wamv_link,0,0,-33.7243004889,150.673705873,-0.152631019128,0,0,0,0,0,0,0,0,0,2,5
885400000000,13280,885400000000,wamv5/gps_wamv_link,0,0,-33.7243006049,150.673705929,-0.153713073656,0,0,0,0,0,0,0,0,0,2,5
885467000000,13281,885467000000,wamv5/gps_wamv_link,0,0,-33.7243007218,150.673705984,-0.154611865766,0,0,0,0,0,0,0,0,0,2,5
885533000000,13282,885533000000,wamv5/gps_wamv_link,0,0,-33.7243008373,150.673706038,-0.155334044068,0,0,0,0,0,0,0,0,0,2,5
885600000000,13283,885600000000,wamv5/gps_wamv_link,0,0,-33.7243009543,150.673706092,-0.155893071209,0,0,0,0,0,0,0,0,0,2,5
885667000000,13284,885667000000,wamv5/gps_wamv_link,0,0,-33.7243010704,150.673706146,-0.156254170453,0,0,0,0,0,0,0,0,0,2,5
885733000000,13285,885733000000,wamv5/gps_wamv_link,0,0,-33.7243011836,150.6737062,-0.15639687278,0,0,0,0,0,0,0,0,0,2,5
885800000000,13286,885800000000,wamv5/gps_wamv_link,0,0,-33.7243012971,150.673706255,-0.156323917736,0,0,0,0,0,0,0,0,0,2,5
885867000000,13287,885867000000,wamv5/gps_wamv_link,0,0,-33.7243014097,150.67370631,-0.156055627462,0,0,0,0,0,0,0,0,0,2,5
885933000000,13288,885933000000,wamv5/gps_wamv_link,0,0,-33.7243015201,150.673706363,-0.155644506976,0,0,0,0,0,0,0,0,0,2,5
886000000000,13289,886000000000,wamv5/gps_wamv_link,0,0,-33.7243016324,150.673706417,-0.155130442613,0,0,0,0,0,0,0,0,0,2,5
886067000000,13290,886067000000,wamv5/gps_wamv_link,0,0,-33.7243017456,150.673706468,-0.154563022324,0,0,0,0,0,0,0,0,0,2,5
886133000000,13291,886133000000,wamv5/gps_wamv_link,0,0,-33.7243018583,150.673706518,-0.153973117067,0,0,0,0,0,0,0,0,0,2,5
886200000000,13292,886200000000,wamv5/gps_wamv_link,0,0,-33.7243019737,150.673706566,-0.153333338965,0,0,0,0,0,0,0,0,0,2,5
886267000000,13293,886267000000,wamv5/gps_wamv_link,0,0,-33.7243020897,150.673706613,-0.152609682185,0,0,0,0,0,0,0,0,0,2,5
886333000000,13294,886333000000,wamv5/gps_wamv_link,0,0,-33.724302204,150.673706659,-0.151747954511,0,0,0,0,0,0,0,0,0,2,5
886400000000,13295,886400000000,wamv5/gps_wamv_link,0,0,-33.7243023193,150.673706705,-0.150644367049,0,0,0,0,0,0,0,0,0,2,5
886467000000,13296,886467000000,wamv5/gps_wamv_link,0,0,-33.7243024335,150.673706749,-0.149242543279,0,0,0,0,0,0,0,0,0,2,5
