t,field.header.seq,field.header.stamp,field.header.frame_id,field.status.status,field.status.service,Y,X,field.altitude,field.position_covariance0,field.position_covariance1,field.position_covariance2,field.position_covariance3,field.position_covariance4,field.position_covariance5,field.position_covariance6,field.position_covariance7,field.position_covariance8,field.position_covariance_type,trajectory_id
854267000000,12799,854267000000,wamv4/gps_wamv_link,0,0,-33.7242228892,150.673801507,-0.0369365354774,0,0,0,0,0,0,0,0,0,2,4
854333000000,12800,854333000000,wamv4/gps_wamv_link,0,0,-33.7242228855,150.673801524,-0.0479788701766,0,0,0,0,0,0,0,0,0,2,4
854400000000,12801,854400000000,wamv4/gps_wamv_link,0,0,-33.7242228835,150.673801553,-0.0712694526449,0,0,0,0,0,0,0,0,0,2,4
854467000000,12802,854467000000,wamv4/gps_wamv_link,0,0,-33.7242228899,150.673801573,-0.0948186213354,0,0,0,0,0,0,0,0,0,2,4
854533000000,12803,854533000000,wamv4/gps_wamv_link,0,0,-33.7242229076,150.673801563,-0.106465518591,0,0,0,0,0,0,0,0,0,2,4
854600000000,12804,854600000000,wamv4/gps_wamv_link,0,0,-33.7242229344,150.673801512,-0.101608049535,0,0,0,0,0,0,0,0,0,2,4
854668000000,12805,854667000000,wamv4/gps_wamv_link,0,0,-33.7242229637,150.673801426,-0.0845673972246,0,0,0,0,0,0,0,0,0,2,4
854733000000,12806,854733000000,wamv4/gps_wamv_link,0,0,-33.7242229909,150.673801325,-0.0662983654364,0,0,0,0,0,0,0,0,0,2,4
854800000000,12807,854800000000,wamv4/gps_wamv_link,0,0,-33.724223018,150.673801228,-0.056038100835,0,0,0,0,0,0,0,0,0,2,4
854867000000,12808,854867000000,wamv4/gps_wamv_link,0,0,-33.7242230496,150.673801152,-0.0580731668775,0,0,0,0,0,0,0,0,0,2,4
854933000000,12809,854933000000,wamv4/gps_wamv_link,0,0,-33.7242230906,150.673801107,-0.070043312886,0,0,0,0,0,0,0,0,0,2,4
855000000000,12810,855000000000,wamv4/gps_wamv_link,0,0,-33.7242231454,150.673801091,-0.0866792425045,0,0,0,0,0,0,0,0,0,2,4
855067000000,12811,855067000000,wamv4/gps_wamv_link,0,0,-33.724223211,150.673801094,-0.100766189525,0,0,0,0,0,0,0,0,0,2,4
855133000000,12812,855133000000,wamv4/gps_wamv_link,0,0,-33.7242232796,150.673801098,-0.106366457769,0,0,0,0,0,0,0,0,0,2,4
855200000000,12813,855200000000,wamv4/gps_wamv_link,0,0,-33.7242233474,150.673801083,-0.101909337712,0,0,0,0,0,0,0,0,0,2,4
855267000000,12814,855267000000,wamv4/gps_wamv_link,0,0,-33.7242234135,150.673801034,-0.0907729568602,0,0,0,0,0,0,0,0,0,2,4
855333000000,12815,855333000000,wamv4/gps_wamv_link,0,0,-33.7242234831,150.673800955,-0.0800880440942,0,0,0,0,0,0,0,0,0,2,4
855400000000,12816,855400000000,wamv4/gps_wamv_link,0,0,-33.7242235651,150.673800853,-0.0762558011269,0,0,0,0,0,0,0,0,0,2,4
855467000000,12817,855467000000,wamv4/gps_wamv_link,0,0,-33.7242236618,150.673800746,-0.0825361905038,0,0,0,0,0,0,0,0,0,2,4
855533000000,12818,855533000000,wamv4/gps_wamv_link,0,0,-33.7242237686,150.673800652,-0.0965172342392,0,0,0,0,0,0,0,0,0,2,4
855600000000,12819,855600000000,wamv4/gps_wamv_link,0,0,-33.7242238815,150.673800579,-0.112837126382,0,0,0,0,0,0,0,0,0,2,4
855667000000,12820,855667000000,wamv4/gps_wamv_link,0,0,-33.7242239921,150.673800534,-0.125122284475,0,0,0,0,0,0,0,0,0,2,4
855733000000,12821,855733000000,wamv4/gps_wamv_link,0,0,-33.7242240974,150.67380051,-0.129785995006,0,0,0,0,0,0,0,0,0,2,4
855800000000,12822,855800000000,wamv4/gps_wamv_link,0,0,-33.7242242062,150.673800494,-0.127271034181,0,0,0,0,0,0,0,0,0,2,4
855867000000,12823,855867000000,wamv4/gps_wamv_link,0,0,-33.7242243257,150.67380047,-0.120952404017,0,0,0,0,0,0,0,0,0,2,4
855933000000,12824,855933000000,wamv4/gps_wamv_link,0,0,-33.7242244587,150.673800425,-0.11559755685,0,0,0,0,0,0,0,0,0,2,4
856000000000,12825,856000000000,wamv4/gps_wamv_link,0,0,-33.7242246073,150.673800349,-0.11490442826,0,0,0,0,0,0,0,0,0,2,4
856067000000,12826,856067000000,wamv4/gps_wamv_link,0,0,-33.7242247633,150.673800247,-0.120840050157,0,0,0,0,0,0,0,0,0,2,4
856133000000,12827,856133000000,wamv4/gps_wamv_link,0,0,-33.7242249176,150.673800128,-0.132329362123,0,0,0,0,0,0,0,0,0,2,4
856200000000,12828,856200000000,wamv4/gps_wamv_link,0,0,-33.7242250725,150.673800005,-0.146235102705,0,0,0,0,0,0,0,0,0,2,4
856267000000,12829,856267000000,wamv4/gps_wamv_link,0,0,-33.7242252291,150.673799895,-0.157694370345,0,0,0,0,0,0,0,0,0,2,4
856333000000,12830,856333000000,wamv4/gps_wamv_link,0,0,-33.7242253911,150.673799809,-0.163156480396,0,0,0,0,0,0,0,0,0,2,4
856400000000,12831,856400000000,wamv4/gps_wamv_link,0,0,-33.7242255672,150.673799749,-0.162243879082,0,0,0,0,0,0,0,0,0,2,4
856467000000,12832,856467000000,wamv4/gps_wamv_link,0,0,-33.7242257534,150.673799707,-0.157255171752,0,0,0,0,0,0,0,0,0,2,4
856533000000,12833,856533000000,wamv4/gps_wamv_link,0,0,-33.7242259409,150.673799671,-0.152028867476,0,0,0,0,0,0,0,0,0,2,4
856600000000,12834,856600000000,wamv4/gps_wamv_link,0,0,-33.7242261308,150.673799622,-0.149350265885,0,0,0,0,0,0,0,0,0,2,4
856667000000,12835,856667000000,wamv4/gps_wamv_link,0,0,-33.7242263203,150.67379955,-0.150357783932,0,0,0,0,0,0,0,0,0,2,4
856733000000,12836,856733000000,wamv4/gps_wamv_link,0,0,-33.7242265119,150.673799453,-0.154333361201,0,0,0,0,0,0,0,0,0,2,4
856800000000,12837,856800000000,wamv4/gps_wamv_link,0,0,-33.7242267177,150.673799332,-0.159819912968,0,0,0,0,0,0,0,0,0,2,4
856867000000,12838,856867000000,wamv4/gps_wamv_link,0,0,-33.724226938,150.673799204,-0.164758693138,0,0,0,0,0,0,0,0,0,2,4
856933000000,12839,856933000000,wamv4/gps_wamv_link,0,0,-33.7242271655,150.673799086,-0.167234274437,0,0,0,0,0,0,0,0,0,2,4
857000000000,12840,857000000000,wamv4/gps_wamv_link,0,0,-33.7242273985,150.673798987,-0.166269292789,0,0,0,0,0,0,0,0,0,2,4
857067000000,12841,857067000000,wamv4/gps_wamv_link,0,0,-33.7242276255,150.673798913,-0.162157494339,0,0,0,0,0,0,0,0,0,2,4
857133000000,12842,857133000000,wamv4/gps_wamv_link,0,0,-33.7242278405,150.673798863,-0.156701821433,0,0,0,0,0,0,0,0,0,2,4
857200000000,12843,857200000000,wamv4/gps_wamv_link,0,0,-33.724228054,150.673798827,-0.151859104142,0,0,0,0,0,0,0,0,0,2,4
857267000000,12844,857267000000,wamv4/gps_wamv_link,0,0,-33.7242282701,150.67379879,-0.148964367274,0,0,0,0,0,0,0,0,0,2,4
857333000000,12845,857333000000,wamv4/gps_wamv_link,0,0,-33.7242284918,150.67379874,-0.147787073058,0,0,0,0,0,0,0,0,0,2,4
857400000000,12846,857400000000,wamv4/gps_wamv_link,0,0,-33.7242287264,150.673798666,-0.147220973149,0,0,0,0,0,0,0,0,0,2,4
857467000000,12847,857467000000,wamv4/gps_wamv_link,0,0,-33.7242289657,150.673798565,-0.146459176178,0,0,0,0,0,0,0,0,0,2,4
857533000000,12848,857533000000,wamv4/gps_wamv_link,0,0,-33.7242291994,150.673798446,-0.145365560189,0,0,0,0,0,0,0,0,0,2,4
857600000000,12849,857600000000,wamv4/gps_wamv_link,0,0,-33.7242294297,150.673798318,-0.14403708615,0,0,0,0,0,0,0,0,0,2,4
857667000000,12850,857667000000,wamv4/gps_wamv_link,0,0,-33.7242296528,150.6737982,-0.142406542584,0,0,0,0,0,0,0,0,0,2,4
857733000000,12851,857733000000,wamv4/gps_wamv_link,0,0,-33.7242298683,150.673798106,-0.140234024712,0,0,0,0,0,0,0,0,0,2,4
857800000000,12852,857800000000,wamv4/gps_wamv_link,0,0,-33.7242300852,150.673798035,-0.13738480868,0,0,0,0,0,0,0,0,0,2,4
857867000000,12853,857867000000,wamv4/gps_wamv_link,0,0,-33.7242303,150.673797984,-0.134166086954,0,0,0,0,0,0,0,0,0,2,4
857933000000,12854,857933000000,wamv4/gps_wamv_link,0,0,-33.7242305074,150.673797938,-0.130877729286,0,0,0,0,0,0,0,0,0,2,4
858000000000,12855,858000000000,wamv4/gps_wamv_link,0,0,-33.7242307121,150.673797879,-0.127299698167,0,0,0,0,0,0,0,0,0,2,4
858067000000,12856,858067000000,wamv4/gps_wamv_link,0,0,-33.7242309126,150.673797795,-0.123245950732,0,0,0,0,0,0,0,0,0,2,4
858133000000,12857,858133000000,wamv4/gps_wamv_link,0,0,-33.7242311103,150.673797684,-0.11901731952,0,0,0,0,0,0,0,0,0,2,4
858200000000,12858,858200000000,wamv4/gps_wamv_link,0,0,-33.7242313154,150.673797547,-0.11531180074,0,0,0,0,0,0,0,0,0,2,4
858267000000,12859,858267000000,wamv4/gps_wamv_link,0,0,-33.7242315249,150.6737974,-0.112973190036,0,0,0,0,0,0,0,0,0,2,4
858333000000,12860,858333000000,wamv4/gps_wamv_link,0,0,-33.7242317304,150.673797259,-0.111902459004,0,0,0,0,0,0,0,0,0,2,4
858400000000,12861,858400000000,wamv4/gps_wamv_link,0,0,-33.7242319296,150.673797131,-0.110987449209,0,0,0,0,0,0,0,0,0,2,4
858467000000,12862,858467000000,wamv4/gps_wamv_link,0,0,-33.7242321126,150.673797023,-0.108954538457,0,0,0,0,0,0,0,0,0,2,4
858533000000,12863,858533000000,wamv4/gps_wamv_link,0,0,-33.7242322757,150.673796935,-0.105247659788,0,0,0,0,0,0,0,0,0,2,4
858600000000,12864,858600000000,wamv4/gps_wamv_link,0,0,-33.7242324287,150.673796857,-0.0999978651307,0,0,0,0,0,0,0,0,0,2,4
858667000000,12865,858667000000,wamv4/gps_wamv_link,0,0,-33.7242325775,150.673796778,-0.0939495536804,0,0,0,0,0,0,0,0,0,2,4
858733000000,12866,858733000000,wamv4/gps_wamv_link,0,0,-33.7242327267,150.673796687,-0.0879311989987,0,0,0,0,0,0,0,0,0,2,4
858800000000,12867,858800000000,wamv4/gps_wamv_link,0,0,-33.7242328823,150.673796573,-0.0824888175172,0,0,0,0,0,0,0,0,0,2,4
858867000000,12868,858867000000,wamv4/gps_wamv_link,0,0,-33.7242330377,150.673796433,-0.0785345699212,0,0,0,0,0,0,0,0,0,2,4
858933000000,12869,858933000000,wamv4/gps_wamv_link,0,0,-33.7242331848,150.673796276,-0.0767046965769,0,0,0,0,0,0,0,0,0,2,4
859000000000,12870,859000000000,wamv4/gps_wamv_link,0,0,-33.7242333257,150.67379611,-0.0767910272322,0,0,0,0,0,0,0,0,0,2,4
859067000000,12871,859067000000,wamv4/gps_wamv_link,0,0,-33.7242334684,150.673795958,-0.0776950346176,0,0,0,0,0,0,0,0,0,2,4
859133000000,12872,859133000000,wamv4/gps_wamv_link,0,0,-33.7242336125,150.673795833,-0.0779079906516,0,0,0,0,0,0,0,0,0,2,4
859200000000,12873,859200000000,wamv4/gps_wamv_link,0,0,-33.7242337624,150.673795735,-0.076543110407,0,0,0,0,0,0,0,0,0,2,4
859267000000,12874,859267000000,wamv4/gps_wamv_link,0,0,-33.724233914,150.67379566,-0.0737828242258,0,0,0,0,0,0,0,0,0,2,4
859333000000,12875,859333000000,wamv4/gps_wamv_link,0,0,-33.7242340646,150.673795596,-0.0706252044351,0,0,0,0,0,0,0,0,0,2,4
859400000000,12876,859400000000,wamv4/gps_wamv_link,0,0,-33.7242342204,150.673795524,-0.0679640210847,0,0,0,0,0,0,0,0,0,2,4
859467000000,12877,859467000000,wamv4/gps_wamv_link,0,0,-33.7242343825,150.673795436,-0.0665117968224,0,0,0,0,0,0,0,0,0,2,4
859533000000,12878,859533000000,wamv4/gps_wamv_link,0,0,-33.724234554,150.673795329,-0.0666834081632,0,0,0,0,0,0,0,0,0,2,4
859600000000,12879,859600000000,wamv4/gps_wamv_link,0,0,-33.7242347435,150.673795202,-0.0688158259833,0,0,0,0,0,0,0,0,0,2,4
859667000000,12880,859667000000,wamv4/gps_wamv_link,0,0,-33.7242349468,150.673795069,-0.0728870953035,0,0,0,0,0,0,0,0,0,2,4
859733000000,12881,859733000000,wamv4/gps_wamv_link,0,0,-33.7242351549,150.673794942,-0.0780245949303,0,0,0,0,0,0,0,0,0,2,4
859800000000,12882,859800000000,wamv4/gps_wamv_link,0,0,-33.7242353671,150.67379483,-0.0830106609027,0,0,0,0,0,0,0,0,0,2,4
859867000000,12883,859867000000,wamv4/gps_wamv_link,0,0,-33.7242355755,150.67379474,-0.0865624828107,0,0,0,0,0,0,0,0,0,2,4
859933000000,12884,859933000000,wamv4/gps_wamv_link,0,0,-33.724235777,150.673794674,-0.0883624209257,0,0,0,0,0,0,0,0,0,2,4
860000000000,12885,860000000000,wamv4/gps_wamv_link,0,0,-33.7242359823,150.673794623,-0.0890921150816,0,0,0,0,0,0,0,0,0,2,4
860067000000,12886,860067000000,wamv4/gps_wamv_link,0,0,-33.7242361947,150.673794577,-0.0896858101935,0,0,0,0,0,0,0,0,0,2,4
860133000000,12887,860133000000,wamv4/gps_wamv_link,0,0,-33.7242364157,150.673794526,-0.0908335243711,0,0,0,0,0,0,0,0,0,2,4
860200000000,12888,860200000000,wamv4/gps_wamv_link,0,0,-33.7242366538,150.673794458,-0.0929178905279,0,0,0,0,0,0,0,0,0,2,4
860267000000,12889,860267000000,wamv4/gps_wamv_link,0,0,-33.7242369053,150.673794371,-0.0961578045613,0,0,0,0,0,0,0,0,0,2,4
860333000000,12890,860333000000,wamv4/gps_wamv_link,0,0,-33.7242371627,150.673794273,-0.100619340027,0,0,0,0,0,0,0,0,0,2,4
860400000000,12891,860400000000,wamv4/gps_wamv_link,0,0,-33.7242374301,150.673794171,-0.106160102895,0,0,0,0,0,0,0,0,0,2,4
860467000000,12892,860467000000,wamv4/gps_wamv_link,0,0,-33.7242377013,150.673794082,-0.111805695081,0,0,0,0,0,0,0,0,0,2,4
860533000000,12893,860533000000,wamv4/gps_wamv_link,0,0,-33.7242379709,150.673794017,-0.116330644619,0,0,0,0,0,0,0,0,0,2,4
860600000000,12894,860600000000,wamv4/gps_wamv_link,0,0,-33.7242382456,150.67379398,-0.119201280431,0,0,0,0,0,0,0,0,0,2,4
860667000000,12895,860667000000,wamv4/gps_wamv_link,0,0,-33.7242385183,150.673793965,-0.120557692163,0,0,0,0,0,0,0,0,0,2,4
860733000000,12896,860733000000,wamv4/gps_wamv_link,0,0,-33.7242387852,150.673793963,-0.121231549318,0,0,0,0,0,0,0,0,0,2,4
860800000000,12897,860800000000,wamv4/gps_wamv_link,0,0,-33.7242390574,150.67379396,-0.122064676117,0,0,0,0,0,0,0,0,0,2,4
860867000000,12898,860867000000,wamv4/gps_wamv_link,0,0,-33.7242393373,150.673793946,-0.123510768997,0,0,0,0,0,0,0,0,0,2,4
860933000000,12899,860933000000,wamv4/gps_wamv_link,0,0,-33.7242396256,150.673793917,-0.125764506923,0,0,0,0,0,0,0,0,0,2,4
861000000000,12900,861000000000,wamv4/gps_wamv_link,0,0,-33.7242399334,150.673793874,-0.129123264998,0,0,0,0,0,0,0,0,0,2,4
861067000000,12901,861067000000,wamv4/gps_wamv_link,0,0,-33.7242402542,150.673793824,-0.133643708602,0,0,0,0,0,0,0,0,0,2,4
861133000000,12902,861133000000,wamv4/gps_wamv_link,0,0,-33.7242405765,150.67379378,-0.138809039173,0,0,0,0,0,0,0,0,0,2,4
861200000000,12903,861200000000,wamv4/gps_wamv_link,0,0,-33.7242409025,150.673793748,-0.143810512336,0,0,0,0,0,0,0,0,0,2,4
861267000000,12904,861267000000,wamv4/gps_wamv_link,0,0,-33.7242412217,150.673793738,-0.147599740168,0,0,0,0,0,0,0,0,0,2,4
861333000000,12905,861333000000,wamv4/gps_wamv_link,0,0,-33.7242415288,150.673793749,-0.149808314977,0,0,0,0,0,0,0,0,0,2,4
861400000000,12906,861400000000,wamv4/gps_wamv_link,0,0,-33.724241837,150.673793776,-0.150895613972,0,0,0,0,0,0,0,0,0,2,4
861467000000,12907,861467000000,wamv4/gps_wamv_link,0,0,-33.7242421483,150.67379381,-0.151518723837,0,0,0,0,0,0,0,0,0,2,4
861533000000,12908,861533000000,wamv4/gps_wamv_link,0,0,-33.7242424644,150.673793839,-0.152189380177,0,0,0,0,0,0,0,0,0,2,4
861600000000,12909,861600000000,wamv4/gps_wamv_link,0,0,-33.7242427984,150.673793855,-0.15320310031,0,0,0,0,0,0,0,0,0,2,4
861667000000,12910,861667000000,wamv4/gps_wamv_link,0,0,-33.7242431464,150.673793854,-0.154814807282,0,0,0,0,0,0,0,0,0,2,4
861733000000,12911,861733000000,wamv4/gps_wamv_link,0,0,-33.7242434995,150.673793841,-0.157261970614,0,0,0,0,0,0,0,0,0,2,4
861800000000,12912,861800000000,wamv4/gps_wamv_link,0,0,-33.7242438641,150.673793825,-0.160560553457,0,0,0,0,0,0,0,0,0,2,4
861867000000,12913,861867000000,wamv4/gps_wamv_link,0,0,-33.7242442302,150.673793818,-0.163967570322,0,0,0,0,0,0,0,0,0,2,4
861933000000,12914,861933000000,wamv4/gps_wamv_link,0,0,-33.7242445889,150.673793831,-0.166331062555,0,0,0,0,0,0,0,0,0,2,4
862000000000,12915,862000000000,wamv4/gps_wamv_link,0,0,-33.7242449481,150.673793867,-0.166866464085,0,0,0,0,0,0,0,0,0,2,4
862067000000,12916,862067000000,wamv4/gps_wamv_link,0,0,-33.7242453003,150.673793923,-0.165418114387,0,0,0,0,0,0,0,0,0,2,4
862133000000,12917,862133000000,wamv4/gps_wamv_link,0,0,-33.7242456421,150.673793987,-0.162612866902,0,0,0,0,0,0,0,0,0,2,4
862200000000,12918,862200000000,wamv4/gps_wamv_link,0,0,-33.7242459885,150.67379405,-0.159138691112,0,0,0,0,0,0,0,0,0,2,4
862267000000,12919,862267000000,wamv4/gps_wamv_link,0,0,-33.7242463418,150.673794105,-0.155644965213,0,0,0,0,0,0,0,0,0,2,4
862333000000,12920,862333000000,wamv4/gps_wamv_link,0,0,-33.7242467023,150.673794147,-0.152600855121,0,0,0,0,0,0,0,0,0,2,4
862400000000,12921,862400000000,wamv4/gps_wamv_link,0,0,-33.7242470827,150.67379418,-0.150262931307,0,0,0,0,0,0,0,0,0,2,4
862467000000,12922,862467000000,wamv4/gps_wamv_link,0,0,-33.724247474,150.673794209,-0.14882028136,0,0,0,0,0,0,0,0,0,2,4
862533000000,12923,862533000000,wamv4/gps_wamv_link,0,0,-33.7242478625,150.673794242,-0.147896607787,0,0,0,0,0,0,0,0,0,2,4
862600000000,12924,862600000000,wamv4/gps_wamv_link,0,0,-33.7242482511,150.673794287,-0.146561874091,0,0,0,0,0,0,0,0,0,2,4
862667000000,12925,862667000000,wamv4/gps_wamv_link,0,0,-33.7242486269,150.67379435,-0.143917399731,0,0,0,0,0,0,0,0,0,2,4
862733000000,12926,862733000000,wamv4/gps_wamv_link,0,0,-33.7242489843,150.673794431,-0.139717528097,0,0,0,0,0,0,0,0,0,2,4
862800000000,12927,862800000000,wamv4/gps_wamv_link,0,0,-33.7242493384,150.673794529,-0.134272506376,0,0,0,0,0,0,0,0,0,2,4
862867000000,12928,862867000000,wamv4/gps_wamv_link,0,0,-33.7242496906,150.673794636,-0.128457279711,0,0,0,0,0,0,0,0,0,2,4
862933000000,12929,862933000000,wamv4/gps_wamv_link,0,0,-33.7242500434,150.673794742,-0.123031268349,0,0,0,0,0,0,0,0,0,2,4
863000000000,12930,863000000000,wamv4/gps_wamv_link,0,0,-33.7242504126,150.673794839,-0.118214857492,0,0,0,0,0,0,0,0,0,2,4
863067000000,12931,863067000000,wamv4/gps_wamv_link,0,0,-33.7242507933,150.673794922,-0.114366734512,0,0,0,0,0,0,0,0,0,2,4
863133000000,12932,863133000000,wamv4/gps_wamv_link,0,0,-33.7242511768,150.673794991,-0.111758551903,0,0,0,0,0,0,0,0,0,2,4
863200000000,12933,863200000000,wamv4/gps_wamv_link,0,0,-33.7242515697,150.673795056,-0.110280234877,0,0,0,0,0,0,0,0,0,2,4
863267000000,12934,863267000000,wamv4/gps_wamv_link,0,0,-33.7242519611,150.673795129,-0.109409802213,0,0,0,0,0,0,0,0,0,2,4
863333000000,12935,863333000000,wamv4/gps_wamv_link,0,0,-33.7242523404,150.673795216,-0.108223960412,0,0,0,0,0,0,0,0,0,2,4
863400000000,12936,863400000000,wamv4/gps_wamv_link,0,0,-33.7242527155,150.673795322,-0.105953722151,0,0,0,0,0,0,0,0,0,2,4
863467000000,12937,863467000000,wamv4/gps_wamv_link,0,0,-33.7242530802,150.673795443,-0.102522594981,0,0,0,0,0,0,0,0,0,2,4
863533000000,12938,863533000000,wamv4/gps_wamv_link,0,0,-33.7242534318,150.673795569,-0.0984868793266,0,0,0,0,0,0,0,0,0,2,4
863600000000,12939,863600000000,wamv4/gps_wamv_link,0,0,-33.7242537867,150.673795694,-0.0943661268643,0,0,0,0,0,0,0,0,0,2,4
863667000000,12940,863667000000,wamv4/gps_wamv_link,0,0,-33.7242541473,150.673795808,-0.0907034950965,0,0,0,0,0,0,0,0,0,2,4
863733000000,12941,863733000000,wamv4/gps_wamv_link,0,0,-33.7242545139,150.673795908,-0.0878628905428,0,0,0,0,0,0,0,0,0,2,4
863800000000,12942,863800000000,wamv4/gps_wamv_link,0,0,-33.7242548993,150.673796001,-0.0860458442702,0,0,0,0,0,0,0,0,0,2,4
863867000000,12943,863867000000,wamv4/gps_wamv_link,0,0,-33.7242552937,150.673796092,-0.0854431860922,0,0,0,0,0,0,0,0,0,2,4
863933000000,12944,863933000000,wamv4/gps_wamv_link,0,0,-33.7242556834,150.673796185,-0.0857187234704,0,0,0,0,0,0,0,0,0,2,4
864000000000,12945,864000000000,wamv4/gps_wamv_link,0,0,-33.7242560717,150.673796288,-0.0860429711109,0,0,0,0,0,0,0,0,0,2,4
864067000000,12946,864067000000,wamv4/gps_wamv_link,0,0,-33.7242564474,150.673796405,-0.0854857254603,0,0,0,0,0,0,0,0,0,2,4
864133000000,12947,864133000000,wamv4/gps_wamv_link,0,0,-33.7242568025,150.673796534,-0.0836387236943,0,0,0,0,0,0,0,0,0,2,4
864200000000,12948,864200000000,wamv4/gps_wamv_link,0,0,-33.7242571505,150.673796674,-0.0807198477913,0,0,0,0,0,0,0,0,0,2,4
864267000000,12949,864267000000,wamv4/gps_wamv_link,0,0,-33.7242574939,150.673796819,-0.0774559514143,0,0,0,0,0,0,0,0,0,2,4
864333000000,12950,864333000000,wamv4/gps_wamv_link,0,0,-33.7242578361,150.673796962,-0.0745554522073,0,0,0,0,0,0,0,0,0,2,4
864400000000,12951,864400000000,wamv4/gps_wamv_link,0,0,-33.7242581934,150.673797102,-0.0723517869884,0,0,0,0,0,0,0,0,0,2,4
864467000000,12952,864467000000,wamv4/gps_wamv_link,0,0,-33.724258562,150.67379723,-0.0711783031347,0,0,0,0,0,0,0,0,0,2,4
864533000000,12953,864533000000,wamv4/gps_wamv_link,0,0,-33.7242589365,150.673797355,-0.0712458069623,0,0,0,0,0,0,0,0,0,2,4
864600000000,12954,864600000000,wamv4/gps_wamv_link,0,0,-33.7242593233,150.673797488,-0.0725302466597,0,0,0,0,0,0,0,0,0,2,4
864667000000,12955,864667000000,wamv4/gps_wamv_link,0,0,-33.7242597057,150.673797625,-0.0745503041323,0,0,0,0,0,0,0,0,0,2,4
864733000000,12956,864733000000,wamv4/gps_wamv_link,0,0,-33.72426007,150.673797769,-0.0764712826225,0,0,0,0,0,0,0,0,0,2,4
864800000000,12957,864800000000,wamv4/gps_wamv_link,0,0,-33.7242604242,150.673797929,-0.0777021280065,0,0,0,0,0,0,0,0,0,2,4
864867000000,12958,864867000000,wamv4/gps_wamv_link,0,0,-33.7242607665,150.673798108,-0.0781209010142,0,0,0,0,0,0,0,0,0,2,4
864933000000,12959,864933000000,wamv4/gps_wamv_link,0,0,-33.7242610959,150.673798297,-0.0781913769423,0,0,0,0,0,0,0,0,0,2,4
865000000000,12960,865000000000,wamv4/gps_wamv_link,0,0,-33.724261428,150.673798492,-0.0785282506251,0,0,0,0,0,0,0,0,0,2,4
865067000000,12961,865067000000,wamv4/gps_wamv_link,0,0,-33.7242617641,150.673798682,-0.0795717222938,0,0,0,0,0,0,0,0,0,2,4
865133000000,12962,865133000000,wamv4/gps_wamv_link,0,0,-33.7242621029,150.673798858,-0.0815531706288,0,0,0,0,0,0,0,0,0,2,4
865200000000,12963,865200000000,wamv4/gps_wamv_link,0,0,-33.7242624562,150.673799027,-0.0847671392989,0,0,0,0,0,0,0,0,0,2,4
865267000000,12964,865267000000,wamv4/gps_wamv_link,0,0,-33.7242628189,150.673799192,-0.0893215941013,0,0,0,0,0,0,0,0,0,2,4
865333000000,12965,865333000000,wamv4/gps_wamv_link,0,0,-33.7242631793,150.673799359,-0.094874638381,0,0,0,0,0,0,0,0,0,2,4
865400000000,12966,865400000000,wamv4/gps_wamv_link,0,0,-33.7242635397,150.673799536,-0.100861675129,0,0,0,0,0,0,0,0,0,2,4
865467000000,12967,865467000000,wamv4/gps_wamv_link,0,0,-33.7242638869,150.673799722,-0.106287386161,0,0,0,0,0,0,0,0,0,2,4
865533000000,12968,865533000000,wamv4/gps_wamv_link,0,0,-33.7242642127,150.673799911,-0.110523431419,0,0,0,0,0,0,0,0,0,2,4
865600000000,12969,865600000000,wamv4/gps_wamv_link,0,0,-33.7242645297,150.673800106,-0.11374489222,0,0,0,0,0,0,0,0,0,2,4
865667000000,12970,865667000000,wamv4/gps_wamv_link,0,0,-33.7242648433,150.673800315,-0.116365329647,0,0,0,0,0,0,0,0,0,2,4
865733000000,12971,865733000000,wamv4/gps_wamv_link,0,0,-33.7242651557,150.673800526,-0.118888342816,0,0,0,0,0,0,0,0,0,2,4
865800000000,12972,865800000000,wamv4/gps_wamv_link,0,0,-33.7242654819,150.673800735,-0.121758169618,0,0,0,0,0,0,0,0,0,2,4
865867000000,12973,865867000000,wamv4/gps_wamv_link,0,0,-33.7242658206,150.673800937,-0.125191610246,0,0,0,0,0,0,0,0,0,2,4
865933000000,12974,865933000000,wamv4/gps_wamv_link,0,0,-33.7242661644,150.67380113,-0.129315414772,0,0,0,0,0,0,0,0,0,2,4
866000000000,12975,866000000000,wamv4/gps_wamv_link,0,0,-33.7242665176,150.673801322,-0.13422251043,0,0,0,0,0,0,0,0,0,2,4
866067000000,12976,866067000000,wamv4/gps_wamv_link,0,0,-33.7242668669,150.673801514,-0.139376881428,0,0,0,0,0,0,0,0,0,2,4
866133000000,12977,866133000000,wamv4/gps_wamv_link,0,0,-33.7242672002,150.673801709,-0.143883068971,0,0,0,0,0,0,0,0,0,2,4
866200000000,12978,866200000000,wamv4/gps_wamv_link,0,0,-33.7242675233,150.673801915,-0.147143775857,0,0,0,0,0,0,0,0,0,2,4
866267000000,12979,866267000000,wamv4/gps_wamv_link,0,0,-33.7242678314,150.673802128,-0.148865610444,0,0,0,0,0,0,0,0,0,2,4
866333000000,12980,866333000000,wamv4/gps_wamv_link,0,0,-33.7242681242,150.673802343,-0.149414814425,0,0,0,0,0,0,0,0,0,2,4
866400000000,12981,866400000000,wamv4/gps_wamv_link,0,0,-33.7242684174,150.673802562,-0.149425620248,0,0,0,0,0,0,0,0,0,2,4
866467000000,12982,866467000000,wamv4/gps_wamv_link,0,0,-33.7242687145,150.673802778,-0.149415301851,0,0,0,0,0,0,0,0,0,2,4
866533000000,12983,866533000000,wamv4/gps_wamv_link,0,0,-33.7242690164,150.673802984,-0.149727263446,0,0,0,0,0,0,0,0,0,2,4
866600000000,12984,866600000000,wamv4/gps_wamv_link,0,0,-33.7242693341,150.673803187,-0.150629438027,0,0,0,0,0,0,0,0,0,2,4
866667000000,12985,866667000000,wamv4/gps_wamv_link,0,0,-33.7242696599,150.673803386,-0.152270248111,0,0,0,0,0,0,0,0,0,2,4
866733000000,12986,866733000000,wamv4/gps_wamv_link,0,0,-33.7242699821,150.673803583,-0.1544473338,0,0,0,0,0,0,0,0,0,2,4
866800000000,12987,866800000000,wamv4/gps_wamv_link,0,0,-33.7242703022,150.673803786,-0.156648234918,0,0,0,0,0,0,0,0,0,2,4
866867000000,12988,866867000000,wamv4/gps_wamv_link,0,0,-33.7242706087,150.673803994,-0.158090080193,0,0,0,0,0,0,0,0,0,2,4
866933000000,12989,866933000000,wamv4/gps_wamv_link,0,0,-33.7242708951,150.673804204,-0.158312415614,0,0,0,0,0,0,0,0,0,2,4
867000000000,12990,867000000000,wamv4/gps_wamv_link,0,0,-33.7242711723,150.673804421,-0.157405276292,0,0,0,0,0,0,0,0,0,2,4
867067000000,12991,867067000000,wamv4/gps_wamv_link,0,0,-33.7242714419,150.67380464,-0.155853137943,0,0,0,0,0,0,0,0,0,2,4
867133000000,12992,867133000000,wamv4/gps_wamv_link,0,0,-33.724271708,150.673804855,-0.154226524533,0,0,0,0,0,0,0,0,0,2,4
867200000000,12993,867200000000,wamv4/gps_wamv_link,0,0,-33.7242719857,150.67380507,-0.152851894774,0,0,0,0,0,0,0,0,0,2,4
867267000000,12994,867267000000,wamv4/gps_wamv_link,0,0,-33.7242722748,150.673805278,-0.152004667944,0,0,0,0,0,0,0,0,0,2,4
867333000000,12995,867333000000,wamv4/gps_wamv_link,0,0,-33.7242725696,150.673805476,-0.151874108306,0,0,0,0,0,0,0,0,0,2,4
867400000000,12996,867400000000,wamv4/gps_wamv_link,0,0,-33.7242728741,150.673805671,-0.152471188603,0,0,0,0,0,0,0,0,0,2,4
867467000000,12997,867467000000,wamv4/gps_wamv_link,0,0,-33.7242731767,150.673805865,-0.153430248025,0,0,0,0,0,0,0,0,0,2,4
867533000000,12998,867533000000,wamv4/gps_wamv_link,0,0,-33.7242734662,150.673806058,-0.154018830385,0,0,0,0,0,0,0,0,0,2,4
867600000000,12999,867600000000,wamv4/gps_wamv_link,0,0,-33.7242737467,150.673806258,-0.153544438262,0,0,0,0,0,0,0,0,0,2,4
867667000000,13000,867667000000,wamv4/gps_wamv_link,0,0,-33.7242740131,150.673806463,-0.15169347303,0,0,0,0,0,0,0,0,0,2,4
867733000000,13001,867733000000,wamv4/gps_wamv_link,0,0,-33.7242742651,150.673806665,-0.148741900474,0,0,0,0,0,0,0,0,0,2,4
867800000000,13002,867800000000,wamv4/gps_wamv_link,0,0,-33.724274517,150.673806868,-0.145104262141,0,0,0,0,0,0,0,0,0,2,4
867867000000,13003,867867000000,wamv4/gps_wamv_link,0,0,-33.7242747728,150.673807063,-0.141311365767,0,0,0,0,0,0,0,0,0,2,4
867933000000,13004,867933000000,wamv4/gps_wamv_link,0,0,-33.7242750348,150.67380725,-0.137776940591,0,0,0,0,0,0,0,0,0,2,4
868000000000,13005,868000000000,wamv4/gps_wamv_link,0,0,-33.724275313,150.673807433,-0.134668194315,0,0,0,0,0,0,0,0,0,2,4
868067000000,13006,868067000000,wamv4/gps_wamv_link,0,0,-33.7242756008,150.673807614,-0.132203819741,0,0,0,0,0,0,0,0,0,2,4
868133000000,13007,868133000000,wamv4/gps_wamv_link,0,0,-33.7242758871,150.673807791,-0.130274331259,0,0,0,0,0,0,0,0,0,2,4
868200000000,13008,868200000000,wamv4/gps_wamv_link,0,0,-33.7242761723,150.673807972,-0.128288434829,0,0,0,0,0,0,0,0,0,2,4
868267000000,13009,868267000000,wamv4/gps_wamv_link,0,0,-33.7242764451,150.673808153,-0.125555887611,0,0,0,0,0,0,0,0,0,2,4
868333000000,13010,868333000000,wamv4/gps_wamv_link,0,0,-33.7242766991,150.673808333,-0.121676648214,0,0,0,0,0,0,0,0,0,2,4
868400000000,13011,868400000000,wamv4/gps_wamv_link,0,0,-33.7242769436,150.673808516,-0.116595607832,0,0,0,0,0,0,0,0,0,2,4
868467000000,13012,868467000000,wamv4/gps_wamv_link,0,0,-33.7242771807,150.673808702,-0.110858175409,0,0,0,0,0,0,0,0,0,2,4
868533000000,13013,868533000000,wamv4/gps_wamv_link,0,0,-33.724277415,150.673808886,-0.10515213635,0,0,0,0,0,0,0,0,0,2,4
868600000000,13014,868600000000,wamv4/gps_wamv_link,0,0,-33.7242776605,150.673809071,-0.099771319943,0,0,0,0,0,0,0,0,0,2,4
868667000000,13015,868667000000,wamv4/gps_wamv_link,0,0,-33.7242779174,150.673809251,-0.0951325630914,0,0,0,0,0,0,0,0,0,2,4
868733000000,13016,868733000000,wamv4/gps_wamv_link,0,0,-33.7242781807,150.673809423,-0.0915222486644,0,0,0,0,0,0,0,0,0,2,4
868800000000,13017,868800000000,wamv4/gps_wamv_link,0,0,-33.7242784535,150.673809591,-0.0888978830863,0,0,0,0,0,0,0,0,0,2,4
868867000000,13018,868867000000,wamv4/gps_wamv_link,0,0,-33.7242787248,150.673809757,-0.0870524908821,0,0,0,0,0,0,0,0,0,2,4
868933000000,13019,868933000000,wamv4/gps_wamv_link,0,0,-33.7242789841,150.673809922,-0.0854225881961,0,0,0,0,0,0,0,0,0,2,4
869000000000,13020,869000000000,wamv4/gps_wamv_link,0,0,-33.7242792348,150.673810095,-0.0833703531273,0,0,0,0,0,0,0,0,0,2,4
869067000000,13021,869067000000,wamv4/gps_wamv_link,0,0,-33.7242794722,150.673810272,-0.0806917257557,0,0,0,0,0,0,0,0,0,2,4
869133000000,13022,869133000000,wamv4/gps_wamv_link,0,0,-33.7242796961,150.673810449,-0.0776781179854,0,0,0,0,0,0,0,0,0,2,4
869200000000,13023,869200000000,wamv4/gps_wamv_link,0,0,-33.7242799196,150.673810627,-0.0747261073837,0,0,0,0,0,0,0,0,0,2,4
869267000000,13024,869267000000,wamv4/gps_wamv_link,0,0,-33.7242801465,150.6738108,-0.0723311745625,0,0,0,0,0,0,0,0,0,2,4
869333000000,13025,869333000000,wamv4/gps_wamv_link,0,0,-33.7242803793,150.673810963,-0.0708131332549,0,0,0,0,0,0,0,0,0,2,4
869401000000,13026,869400000000,wamv4/gps_wamv_link,0,0,-33.7242806273,150.673811123,-0.0703397088332,0,0,0,0,0,0,0,0,0,2,4
869467000000,13027,869467000000,wamv4/gps_wamv_link,0,0,-33.7242808852,150.673811279,-0.071065325131,0,0,0,0,0,0,0,0,0,2,4
869533000000,13028,869533000000,wamv4/gps_wamv_link,0,0,-33.7242811431,150.673811432,-0.0728297336315,0,0,0,0,0,0,0,0,0,2,4
869600000000,13029,869600000000,wamv4/gps_wamv_link,0,0,-33.724281401,150.673811586,-0.0751964374186,0,0,0,0,0,0,0,0,0,2,4
869667000000,13030,869667000000,wamv4/gps_wamv_link,0,0,-33.7242816486,150.673811741,-0.0774354805177,0,0,0,0,0,0,0,0,0,2,4
869733000000,13031,869733000000,wamv4/gps_wamv_link,0,0,-33.724281879,150.673811894,-0.0789802671125,0,0,0,0,0,0,0,0,0,2,4
869800000000,13032,869800000000,wamv4/gps_wamv_link,0,0,-33.7242821005,150.673812048,-0.0797755422421,0,0,0,0,0,0,0,0,0,2,4
869867000000,13033,869867000000,wamv4/gps_wamv_link,0,0,-33.7242823146,150.673812202,-0.080102426218,0,0,0,0,0,0,0,0,0,2,4
869933000000,13034,869933000000,wamv4/gps_wamv_link,0,0,-33.7242825257,150.673812353,-0.0804136480417,0,0,0,0,0,0,0,0,0,2,4
870000000000,13035,870000000000,wamv4/gps_wamv_link,0,0,-33.7242827469,150.673812503,-0.081096507526,0,0,0,0,0,0,0,0,0,2,4
870067000000,13036,870067000000,wamv4/gps_wamv_link,0,0,-33.7242829793,150.673812649,-0.0824187233154,0,0,0,0,0,0,0,0,0,2,4
870133000000,13037,870133000000,wamv4/gps_wamv_link,0,0,-33.7242832188,150.673812788,-0.0845358158294,0,0,0,0,0,0,0,0,0,2,4
870200000000,13038,870200000000,wamv4/gps_wamv_link,0,0,-33.7242834685,150.673812924,-0.0875474977637,0,0,0,0,0,0,0,0,0,2,4
870267000000,13039,870267000000,wamv4/gps_wamv_link,0,0,-33.7242837179,150.673813058,-0.0911476899814,0,0,0,0,0,0,0,0,0,2,4
870333000000,13040,870333000000,wamv4/gps_wamv_link,0,0,-33.7242839565,150.67381319,-0.0946916930153,0,0,0,0,0,0,0,0,0,2,4
870400000000,13041,870400000000,wamv4/gps_wamv_link,0,0,-33.7242841868,150.673813327,-0.0976673350944,0,0,0,0,0,0,0,0,0,2,4
870467000000,13042,870467000000,wamv4/gps_wamv_link,0,0,-33.724284404,150.673813467,-0.0997176180101,0,0,0,0,0,0,0,0,0,2,4
870533000000,13043,870533000000,wamv4/gps_wamv_link,0,0,-33.7242846078,150.673813606,-0.100992878151,0,0,0,0,0,0,0,0,0,2,4
870600000000,13044,870600000000,wamv4/gps_wamv_link,0,0,-33.7242848103,150.673813747,-0.101989838246,0,0,0,0,0,0,0,0,0,2,4
870667000000,13045,870667000000,wamv4/gps_wamv_link,0,0,-33.7242850156,150.673813886,-0.103167481118,0,0,0,0,0,0,0,0,0,2,4
870733000000,13046,870733000000,wamv4/gps_wamv_link,0,0,-33.7242852263,150.673814018,-0.104851423348,0,0,0,0,0,0,0,0,0,2,4
870800000000,13047,870800000000,wamv4/gps_wamv_link,0,0,-33.7242854512,150.673814149,-0.107337714683,0,0,0,0,0,0,0,0,0,2,4
870867000000,13048,870867000000,wamv4/gps_wamv_link,0,0,-33.7242856855,150.673814277,-0.110748163138,0,0,0,0,0,0,0,0,0,2,4
870933000000,13049,870933000000,wamv4/gps_wamv_link,0,0,-33.7242859202,150.6738144,-0.114929752184,0,0,0,0,0,0,0,0,0,2,4
871000000000,13050,871000000000,wamv4/gps_wamv_link,0,0,-33.7242861553,150.673814525,-0.11959974145,0,0,0,0,0,0,0,0,0,2,4
871067000000,13051,871067000000,wamv4/gps_wamv_link,0,0,-33.7242863811,150.67381465,-0.124079121673,0,0,0,0,0,0,0,0,0,2,4
871133000000,13052,871133000000,wamv4/gps_wamv_link,0,0,-33.7242865912,150.673814774,-0.127816870923,0,0,0,0,0,0,0,0,0,2,4
871200000000,13053,871200000000,wamv4/gps_wamv_link,0,0,-33.7242867928,150.673814902,-0.130814597303,0,0,0,0,0,0,0,0,0,2,4
871267000000,13054,871267000000,wamv4/gps_wamv_link,0,0,-33.7242869873,150.67381503,-0.133275567889,0,0,0,0,0,0,0,0,0,2,4
871333000000,13055,871333000000,wamv4/gps_wamv_link,0,0,-33.7242871783,150.673815155,-0.135576515506,0,0,0,0,0,0,0,0,0,2,4
871400000000,13056,871400000000,wamv4/gps_wamv_link,0,0,-33.7242873782,150.673815278,-0.138124384235,0,0,0,0,0,0,0,0,0,2,4
871467000000,13057,871467000000,wamv4/gps_wamv_link,0,0,-33.7242875876,150.673815396,-0.141109241004,0,0,0,0,0,0,0,0,0,2,4
871533000000,13058,871533000000,wamv4/gps_wamv_link,0,0,-33.724287804,150.673815507,-0.144615897805,0,0,0,0,0,0,0,0,0,2,4
871600000000,13059,871600000000,wamv4/gps_wamv_link,0,0,-33.7242880307,150.673815614,-0.148759631579,0,0,0,0,0,0,0,0,0,2,4
871667000000,13060,871667000000,wamv4/gps_wamv_link,0,0,-33.724288258,150.673815718,-0.153225721208,0,0,0,0,0,0,0,0,0,2,4
871733000000,13061,871733000000,wamv4/gps_wamv_link,0,0,-33.7242884762,150.673815822,-0.157384178016,0,0,0,0,0,0,0,0,0,2,4
871800000000,13062,871800000000,wamv4/gps_wamv_link,0,0,-33.7242886875,150.673815928,-0.160722455214,0,0,0,0,0,0,0,0,0,2,4
871867000000,13063,871867000000,wamv4/gps_wamv_link,0,0,-33.7242888868,150.673816036,-0.162785735991,0,0,0,0,0,0,0,0,0,2,4
871933000000,13064,871933000000,wamv4/gps_wamv_link,0,0,-33.7242890735,150.673816141,-0.163606089536,0,0,0,0,0,0,0,0,0,2,4
872000000000,13065,872000000000,wamv4/gps_wamv_link,0,0,-33.7242892585,150.673816245,-0.163555730359,0,0,0,0,0,0,0,0,0,2,4
872067000000,13066,872067000000,wamv4/gps_wamv_link,0,0,-33.7242894457,150.673816346,-0.163040711432,0,0,0,0,0,0,0,0,0,2,4
872133000000,13067,872133000000,wamv4/gps_wamv_link,0,0,-33.7242896381,150.673816441,-0.162416859696,0,0,0,0,0,0,0,0,0,2,4
872200000000,13068,872200000000,wamv4/gps_wamv_link,0,0,-33.7242898443,150.673816536,-0.161914527186,0,0,0,0,0,0,0,0,0,2,4
872267000000,13069,872267000000,wamv4/gps_wamv_link,0,0,-33.72429006,150.673816628,-0.161694018896,0,0,0,0,0,0,0,0,0,2,4
872333000000,13070,872333000000,wamv4/gps_wamv_link,0,0,-33.7242902769,150.673816718,-0.161699244158,0,0,0,0,0,0,0,0,0,2,4
872400000000,13071,872400000000,wamv4/gps_wamv_link,0,0,-33.7242904947,150.673816808,-0.161581015184,0,0,0,0,0,0,0,0,0,2,4
872467000000,13072,872467000000,wamv4/gps_wamv_link,0,0,-33.7242907032,150.673816898,-0.160795939556,0,0,0,0,0,0,0,0,0,2,4
872533000000,13073,872533000000,wamv4/gps_wamv_link,0,0,-33.7242908966,150.673816987,-0.15893614361,0,0,0,0,0,0,0,0,0,2,4
872600000000,13074,872600000000,wamv4/gps_wamv_link,0,0,-33.7242910819,150.673817078,-0.155867050015,0,0,0,0,0,0,0,0,0,2,4
872667000000,13075,872667000000,wamv4/gps_wamv_link,0,0,-33.72429126,150.673817172,-0.151913977343,0,0,0,0,0,0,0,0,0,2,4
872733000000,13076,872733000000,wamv4/gps_wamv_link,0,0,-33.7242914346,150.673817266,-0.147630770683,0,0,0,0,0,0,0,0,0,2,4
872800000000,13077,872800000000,wamv4/gps_wamv_link,0,0,-33.7242916171,150.67381736,-0.143333831581,0,0,0,0,0,0,0,0,0,2,4
872867000000,13078,872867000000,wamv4/gps_wamv_link,0,0,-33.724291809,150.673817451,-0.13942180218,0,0,0,0,0,0,0,0,0,2,4
872933000000,13079,872933000000,wamv4/gps_wamv_link,0,0,-33.7242920072,150.673817535,-0.136171611857,0,0,0,0,0,0,0,0,0,2,4
873000000000,13080,873000000000,wamv4/gps_wamv_link,0,0,-33.7242922142,150.673817617,-0.133573383374,0,0,0,0,0,0,0,0,0,2,4
873067000000,13081,873067000000,wamv4/gps_wamv_link,0,0,-33.7242924218,150.673817696,-0.131517019705,0,0,0,0,0,0,0,0,0,2,4
873133000000,13082,873133000000,wamv4/gps_wamv_link,0,0,-33.724292621,150.673817775,-0.129595729729,0,0,0,0,0,0,0,0,0,2,4
873200000000,13083,873200000000,wamv4/gps_wamv_link,0,0,-33.7242928134,150.673817858,-0.127241294083,0,0,0,0,0,0,0,0,0,2,4
873267000000,13084,873267000000,wamv4/gps_wamv_link,0,0,-33.7242929941,150.673817944,-0.124179137832,0,0,0,0,0,0,0,0,0,2,4
873333000000,13085,873333000000,wamv4/gps_wamv_link,0,0,-33.7242931625,150.67381803,-0.12053098309,0,0,0,0,0,0,0,0,0,2,4
873400000000,13086,873400000000,wamv4/gps_wamv_link,0,0,-33.7242933284,150.673818115,-0.116516090656,0,0,0,0,0,0,0,0,0,2,4
873467000000,13087,873467000000,wamv4/gps_wamv_link,0,0,-33.7242934954,150.673818196,-0.112579081096,0,0,0,0,0,0,0,0,0,2,4
873533000000,13088,873533000000,wamv4/gps_wamv_link,0,0,-33.724293667,150.673818271,-0.109083764739,0,0,0,0,0,0,0,0,0,2,4
873600000000,13089,873600000000,wamv4/gps_wamv_link,0,0,-33.7242938516,150.673818343,-0.106147525907,0,0,0,0,0,0,0,0,0,2,4
873667000000,13090,873667000000,wamv4/gps_wamv_link,0,0,-33.7242940459,150.673818412,-0.10395858515,0,0,0,0,0,0,0,0,0,2,4
873733000000,13091,873733000000,wamv4/gps_wamv_link,0,0,-33.7242942419,150.673818479,-0.102478881657,0,0,0,0,0,0,0,0,0,2,4
873800000000,13092,873800000000,wamv4/gps_wamv_link,0,0,-33.7242944389,150.673818545,-0.101329209022,0,0,0,0,0,0,0,0,0,2,4
873867000000,13093,873867000000,wamv4/gps_wamv_link,0,0,-33.7242946281,150.673818611,-0.0999929942483,0,0,0,0,0,0,0,0,0,2,4
873933000000,13094,873933000000,wamv4/gps_wamv_link,0,0,-33.7242948041,150.673818675,-0.0980219219672,0,0,0,0,0,0,0,0,0,2,4
874000000000,13095,874000000000,wamv4/gps_wamv_link,0,0,-33.7242949726,150.67381874,-0.0951942378945,0,0,0,0,0,0,0,0,0,2,4
874067000000,13096,874067000000,wamv4/gps_wamv_link,0,0,-33.7242951345,150.673818805,-0.0917389103883,0,0,0,0,0,0,0,0,0,2,4
874133000000,13097,874133000000,wamv4/gps_wamv_link,0,0,-33.724295293,150.673818869,-0.0881187633994,0,0,0,0,0,0,0,0,0,2,4
874200000000,13098,874200000000,wamv4/gps_wamv_link,0,0,-33.7242954589,150.673818933,-0.0846290426029,0,0,0,0,0,0,0,0,0,2,4
874267000000,13099,874267000000,wamv4/gps_wamv_link,0,0,-33.7242956338,150.673818994,-0.0816453927338,0,0,0,0,0,0,0,0,0,2,4
874333000000,13100,874333000000,wamv4/gps_wamv_link,0,0,-33.7242958155,150.67381905,-0.0794201119351,0,0,0,0,0,0,0,0,0,2,4
874400000000,13101,874400000000,wamv4/gps_wamv_link,0,0,-33.7242960068,150.673819103,-0.0779700023893,0,0,0,0,0,0,0,0,0,2,4
874467000000,13102,874467000000,wamv4/gps_wamv_link,0,0,-33.7242961998,150.673819155,-0.0771856332336,0,0,0,0,0,0,0,0,0,2,4
874533000000,13103,874533000000,wamv4/gps_wamv_link,0,0,-33.7242963861,150.673819206,-0.0766784757967,0,0,0,0,0,0,0,0,0,2,4
874600000000,13104,874600000000,wamv4/gps_wamv_link,0,0,-33.7242965667,150.67381926,-0.0759710254041,0,0,0,0,0,0,0,0,0,2,4
874667000000,13105,874667000000,wamv4/gps_wamv_link,0,0,-33.724296737,150.673819316,-0.0748019709821,0,0,0,0,0,0,0,0,0,2,4
874733000000,13106,874733000000,wamv4/gps_wamv_link,0,0,-33.7242968962,150.673819374,-0.0732783945098,0,0,0,0,0,0,0,0,0,2,4
874800000000,13107,874800000000,wamv4/gps_wamv_link,0,0,-33.7242970535,150.673819432,-0.0717079882796,0,0,0,0,0,0,0,0,0,2,4
874867000000,13108,874867000000,wamv4/gps_wamv_link,0,0,-33.7242972123,150.673819489,-0.0705402659078,0,0,0,0,0,0,0,0,0,2,4
874933000000,13109,874933000000,wamv4/gps_wamv_link,0,0,-33.7242973752,150.673819542,-0.0701211865614,0,0,0,0,0,0,0,0,0,2,4
875000000000,13110,875000000000,wamv4/gps_wamv_link,0,0,-33.7242975501,150.673819592,-0.0706709869063,0,0,0,0,0,0,0,0,0,2,4
875067000000,13111,875067000000,wamv4/gps_wamv_link,0,0,-33.7242977337,150.673819639,-0.0723292642567,0,0,0,0,0,0,0,0,0,2,4
875133000000,13112,875133000000,wamv4/gps_wamv_link,0,0,-33.7242979196,150.673819683,-0.0750005183268,0,0,0,0,0,0,0,0,0,2,4
875200000000,13113,875200000000,wamv4/gps_wamv_link,0,0,-33.7242981077,150.673819726,-0.0784710912947,0,0,0,0,0,0,0,0,0,2,4
875267000000,13114,875267000000,wamv4/gps_wamv_link,0,0,-33.7242982899,150.673819768,-0.0822174235591,0,0,0,0,0,0,0,0,0,2,4
875333000000,13115,875333000000,wamv4/gps_wamv_link,0,0,-33.7242984603,150.67381981,-0.0857264622296,0,0,0,0,0,0,0,0,0,2,4
875400000000,13116,875400000000,wamv4/gps_wamv_link,0,0,-33.724298624,150.673819853,-0.0888990178321,0,0,0,0,0,0,0,0,0,2,4
875467000000,13117,875467000000,wamv4/gps_wamv_link,0,0,-33.7242987813,150.673819897,-0.0917812393614,0,0,0,0,0,0,0,0,0,2,4
875533000000,13118,875533000000,wamv4/gps_wamv_link,0,0,-33.724298935,150.673819939,-0.0946087993124,0,0,0,0,0,0,0,0,0,2,4
875600000000,13119,875600000000,wamv4/gps_wamv_link,0,0,-33.7242990953,150.673819978,-0.0977469705318,0,0,0,0,0,0,0,0,0,2,4
875667000000,13120,875667000000,wamv4/gps_wamv_link,0,0,-33.7242992639,150.673820012,-0.101360115977,0,0,0,0,0,0,0,0,0,2,4
875733000000,13121,875733000000,wamv4/gps_wamv_link,0,0,-33.7242994392,150.673820041,-0.105508083093,0,0,0,0,0,0,0,0,0,2,4
875800000000,13122,875800000000,wamv4/gps_wamv_link,0,0,-33.7242996245,150.673820066,-0.110330805912,0,0,0,0,0,0,0,0,0,2,4
875867000000,13123,875867000000,wamv4/gps_wamv_link,0,0,-33.7242998126,150.673820089,-0.115578975755,0,0,0,0,0,0,0,0,0,2,4
875933000000,13124,875933000000,wamv4/gps_wamv_link,0,0,-33.7242999951,150.673820111,-0.120747402666,0,0,0,0,0,0,0,0,0,2,4
876000000000,13125,876000000000,wamv4/gps_wamv_link,0,0,-33.7243001729,150.673820135,-0.125472359427,0,0,0,0,0,0,0,0,0,2,4
876067000000,13126,876067000000,wamv4/gps_wamv_link,0,0,-33.7243003412,150.67382016,-0.12929903576,0,0,0,0,0,0,0,0,0,2,4
876133000000,13127,876133000000,wamv4/gps_wamv_link,0,0,-33.7243004979,150.673820185,-0.132141057647,0,0,0,0,0,0,0,0,0,2,4
876200000000,13128,876200000000,wamv4/gps_wamv_link,0,0,-33.7243006517,150.673820209,-0.134319619624,0,0,0,0,0,0,0,0,0,2,4
876267000000,13129,876267000000,wamv4/gps_wamv_link,0,0,-33.7243008061,150.673820232,-0.136137578123,0,0,0,0,0,0,0,0,0,2,4
876333000000,13130,876333000000,wamv4/gps_wamv_link,0,0,-33.7243009637,150.673820253,-0.137893894712,0,0,0,0,0,0,0,0,0,2,4
876400000000,13131,876400000000,wamv4/gps_wamv_link,0,0,-33.7243011315,150.673820273,-0.13988403928,0,0,0,0,0,0,0,0,0,2,4
876467000000,13132,876467000000,wamv4/gps_wamv_link,0,0,-33.7243013069,150.673820292,-0.142230787408,0,0,0,0,0,0,0,0,0,2,4
876533000000,13133,876533000000,wamv4/gps_wamv_link,0,0,-33.7243014838,150.673820308,-0.144883355615,0,0,0,0,0,0,0,0,0,2,4
876600000000,13134,876600000000,wamv4/gps_wamv_link,0,0,-33.724301662,150.673820324,-0.147690675074,0,0,0,0,0,0,0,0,0,2,4
876667000000,13135,876667000000,wamv4/gps_wamv_link,0,0,-33.7243018339,150.67382034,-0.150203591318,0,0,0,0,0,0,0,0,0,2,4
876733000000,13136,876733000000,wamv4/gps_wamv_link,0,0,-33.7243019937,150.673820357,-0.152010015913,0,0,0,0,0,0,0,0,0,2,4
876800000000,13137,876800000000,wamv4/gps_wamv_link,0,0,-33.7243021462,150.673820376,-0.153010216025,0,0,0,0,0,0,0,0,0,2,4
876867000000,13138,876867000000,wamv4/gps_wamv_link,0,0,-33.7243022914,150.673820399,-0.153316448029,0,0,0,0,0,0,0,0,0,2,4
876933000000,13139,876933000000,wamv4/gps_wamv_link,0,0,-33.724302432,150.673820423,-0.153266303407,0,0,0,0,0,0,0,0,0,2,4
877000000000,13140,877000000000,wamv4/gps_wamv_link,0,0,-33.7243025774,150.673820445,-0.153205981531,0,0,0,0,0,0,0,0,0,2,4
877067000000,13141,877067000000,wamv4/gps_wamv_link,0,0,-33.7243027292,150.673820464,-0.153404648008,0,0,0,0,0,0,0,0,0,2,4
877133000000,13142,877133000000,wamv4/gps_wamv_link,0,0,-33.7243028865,150.673820478,-0.15402353288,0,0,0,0,0,0,0,0,0,2,4
877200000000,13143,877200000000,wamv4/gps_wamv_link,0,0,-33.7243030523,150.673820488,-0.155136295221,0,0,0,0,0,0,0,0,0,2,4
877267000000,13144,877267000000,wamv4/gps_wamv_link,0,0,-33.7243032206,150.673820496,-0.156599899677,0,0,0,0,0,0,0,0,0,2,4
877333000000,13145,877333000000,wamv4/gps_wamv_link,0,0,-33.7243033837,150.673820504,-0.158032715835,0,0,0,0,0,0,0,0,0,2,4
877400000000,13146,877400000000,wamv4/gps_wamv_link,0,0,-33.7243035425,150.673820514,-0.159013170252,0,0,0,0,0,0,0,0,0,2,4
877467000000,13147,877467000000,wamv4/gps_wamv_link,0,0,-33.724303692,150.673820526,-0.159157403868,0,0,0,0,0,0,0,0,0,2,4
877533000000,13148,877533000000,wamv4/gps_wamv_link,0,0,-33.7243038311,150.673820539,-0.158394081113,0,0,0,0,0,0,0,0,0,2,4
877600000000,13149,877600000000,wamv4/gps_wamv_link,0,0,-33.7243039671,150.673820549,-0.156870214464,0,0,0,0,0,0,0,0,0,2,4
877667000000,13150,877667000000,wamv4/gps_wamv_link,0,0,-33.7243041031,150.673820558,-0.154888374943,0,0,0,0,0,0,0,0,0,2,4
877733000000,13151,877733000000,wamv4/gps_wamv_link,0,0,-33.7243042418,150.673820563,-0.152770618785,0,0,0,0,0,0,0,0,0,2,4
877800000000,13152,877800000000,wamv4/gps_wamv_link,0,0,-33.7243043906,150.673820565,-0.150675964234,0,0,0,0,0,0,0,0,0,2,4
877867000000,13153,877867000000,wamv4/gps_wamv_link,0,0,-33.7243045472,150.673820566,-0.148775479384,0,0,0,0,0,0,0,0,0,2,4
877933000000,13154,877933000000,wamv4/gps_wamv_link,0,0,-33.7243047062,150.673820565,-0.14708588322,0,0,0,0,0,0,0,0,0,2,4
878000000000,13155,878000000000,wamv4/gps_wamv_link,0,0,-33.7243048674,150.673820563,-0.145336138594,0,0,0,0,0,0,0,0,0,2,4
878067000000,13156,878067000000,wamv4/gps_wamv_link,0,0,-33.7243050233,150.673820561,-0.143155580452,0,0,0,0,0,0,0,0,0,2,4
878133000000,13157,878133000000,wamv4/gps_wamv_link,0,0,-33.7243051685,150.67382056,-0.140208167669,0,0,0,0,0,0,0,0,0,2,4
878200000000,13158,878200000000,wamv4/gps_wamv_link,0,0,-33.7243053067,150.67382056,-0.136239375745,0,0,0,0,0,0,0,0,0,2,4
878267000000,13159,878267000000,wamv4/gps_wamv_link,0,0,-33.7243054381,150.673820562,-0.131421048964,0,0,0,0,0,0,0,0,0,2,4
878333000000,13160,878333000000,wamv4/gps_wamv_link,0,0,-33.724305565,150.673820567,-0.126181465077,0,0,0,0,0,0,0,0,0,2,4
878400000000,13161,878400000000,wamv4/gps_wamv_link,0,0,-33.7243056961,150.673820571,-0.120756886672,0,0,0,0,0,0,0,0,0,2,4
878467000000,13162,878467000000,wamv4/gps_wamv_link,0,0,-33.7243058333,150.673820573,-0.115569724467,0,0,0,0,0,0,0,0,0,2,4
878533000000,13163,878533000000,wamv4/gps_wamv_link,0,0,-33.7243059757,150.673820573,-0.110941559368,0,0,0,0,0,0,0,0,0,2,4
878600000000,13164,878600000000,wamv4/gps_wamv_link,0,0,-33.724306126,150.67382057,-0.106865793542,0,0,0,0,0,0,0,0,0,2,4
878667000000,13165,878667000000,wamv4/gps_wamv_link,0,0,-33.7243062786,150.673820566,-0.103369194756,0,0,0,0,0,0,0,0,0,2,4
878733000000,13166,878733000000,wamv4/gps_wamv_link,0,0,-33.7243064265,150.673820562,-0.100245085138,0,0,0,0,0,0,0,0,0,2,4
878800000000,13167,878800000000,wamv4/gps_wamv_link,0,0,-33.7243065702,150.673820561,-0.0970507155293,0,0,0,0,0,0,0,0,0,2,4
878867000000,13168,878867000000,wamv4/gps_wamv_link,0,0,-33.7243067053,150.673820563,-0.093582603697,0,0,0,0,0,0,0,0,0,2,4
878933000000,13169,878933000000,wamv4/gps_wamv_link,0,0,-33.7243068307,150.673820567,-0.089894876396,0,0,0,0,0,0,0,0,0,2,4
879000000000,13170,879000000000,wamv4/gps_wamv_link,0,0,-33.7243069531,150.673820571,-0.0861065172121,0,0,0,0,0,0,0,0,0,2,4
879067000000,13171,879067000000,wamv4/gps_wamv_link,0,0,-33.7243070753,150.673820575,-0.0826060879956,0,0,0,0,0,0,0,0,0,2,4
879133000000,13172,879133000000,wamv4/gps_wamv_link,0,0,-33.7243072,150.673820575,-0.0797337667413,0,0,0,0,0,0,0,0,0,2,4
879200000000,13173,879200000000,wamv4/gps_wamv_link,0,0,-33.7243073338,150.673820573,-0.0776169635235,0,0,0,0,0,0,0,0,0,2,4
879267000000,13174,879267000000,wamv4/gps_wamv_link,0,0,-33.7243074751,150.673820567,-0.076424246736,0,0,0,0,0,0,0,0,0,2,4
879333000000,13175,879333000000,wamv4/gps_wamv_link,0,0,-33.7243076192,150.673820559,-0.0761327878884,0,0,0,0,0,0,0,0,0,2,4
879400000000,13176,879400000000,wamv4/gps_wamv_link,0,0,-33.724307766,150.673820549,-0.0765167170093,0,0,0,0,0,0,0,0,0,2,4
879467000000,13177,879467000000,wamv4/gps_wamv_link,0,0,-33.7243079088,150.673820539,-0.0771931485894,0,0,0,0,0,0,0,0,0,2,4
879533000000,13178,879533000000,wamv4/gps_wamv_link,0,0,-33.7243080422,150.67382053,-0.0777406921502,0,0,0,0,0,0,0,0,0,2,4
879600000000,13179,879600000000,wamv4/gps_wamv_link,0,0,-33.7243081696,150.673820522,-0.0779336976103,0,0,0,0,0,0,0,0,0,2,4
879667000000,13180,879667000000,wamv4/gps_wamv_link,0,0,-33.7243082908,150.673820515,-0.0777777400429,0,0,0,0,0,0,0,0,0,2,4
879733000000,13181,879733000000,wamv4/gps_wamv_link,0,0,-33.7243084077,150.673820508,-0.0774936562486,0,0,0,0,0,0,0,0,0,2,4
879800000000,13182,879800000000,wamv4/gps_wamv_link,0,0,-33.7243085285,150.673820498,-0.0773517701611,0,0,0,0,0,0,0,0,0,2,4
879867000000,13183,879867000000,wamv4/gps_wamv_link,0,0,-33.7243086551,150.673820486,-0.0776051408642,0,0,0,0,0,0,0,0,0,2,4
879933000000,13184,879933000000,wamv4/gps_wamv_link,0,0,-33.7243087871,150.673820471,-0.0784140754662,0,0,0,0,0,0,0,0,0,2,4
880000000000,13185,880000000000,wamv4/gps_wamv_link,0,0,-33.7243089272,150.673820452,-0.079874363628,0,0,0,0,0,0,0,0,0,2,4
880067000000,13186,880067000000,wamv4/gps_wamv_link,0,0,-33.7243090701,150.673820433,-0.0818839869131,0,0,0,0,0,0,0,0,0,2,4
880133000000,13187,880133000000,wamv4/gps_wamv_link,0,0,-33.7243092091,150.673820415,-0.0841211494747,0,0,0,0,0,0,0,0,0,2,4
880200000000,13188,880200000000,wamv4/gps_wamv_link,0,0,-33.7243093444,150.673820398,-0.0862702101416,0,0,0,0,0,0,0,0,0,2,4
880267000000,13189,880267000000,wamv4/gps_wamv_link,0,0,-33.7243094715,150.673820383,-0.0879972314079,0,0,0,0,0,0,0,0,0,2,4
880333000000,13190,880333000000,wamv4/gps_wamv_link,0,0,-33.724309589,150.67382037,-0.0892275876473,0,0,0,0,0,0,0,0,0,2,4
880400000000,13191,880400000000,wamv4/gps_wamv_link,0,0,-33.7243097033,150.673820358,-0.0901877079328,0,0,0,0,0,0,0,0,0,2,4
880467000000,13192,880467000000,wamv4/gps_wamv_link,0,0,-33.7243098169,150.673820346,-0.0911791695317,0,0,0,0,0,0,0,0,0,2,4
880533000000,13193,880533000000,wamv4/gps_wamv_link,0,0,-33.7243099325,150.673820334,-0.0924982213731,0,0,0,0,0,0,0,0,0,2,4
880600000000,13194,880600000000,wamv4/gps_wamv_link,0,0,-33.7243100563,150.673820321,-0.0944276576747,0,0,0,0,0,0,0,0,0,2,4
880667000000,13195,880667000000,wamv4/gps_wamv_link,0,0,-33.724310187,150.673820305,-0.0970982839475,0,0,0,0,0,0,0,0,0,2,4
880733000000,13196,880733000000,wamv4/gps_wamv_link,0,0,-33.7243103202,150.673820287,-0.100464527299,0,0,0,0,0,0,0,0,0,2,4
880800000000,13197,880800000000,wamv4/gps_wamv_link,0,0,-33.7243104558,150.673820267,-0.104458041959,0,0,0,0,0,0,0,0,0,2,4
880867000000,13198,880867000000,wamv4/gps_wamv_link,0,0,-33.7243105878,150.673820247,-0.108698774262,0,0,0,0,0,0,0,0,0,2,4
880933000000,13199,880933000000,wamv4/gps_wamv_link,0,0,-33.7243107113,150.673820229,-0.112762702425,0,0,0,0,0,0,0,0,0,2,4
881000000000,13200,881000000000,wamv4/gps_wamv_link,0,0,-33.7243108292,150.673820214,-0.116553566428,0,0,0,0,0,0,0,0,0,2,4
881067000000,13201,881067000000,wamv4/gps_wamv_link,0,0,-33.7243109411,150.6738202,-0.120015014387,0,0,0,0,0,0,0,0,0,2,4
881133000000,13202,881133000000,wamv4/gps_wamv_link,0,0,-33.7243110488,150.673820187,-0.123280716399,0,0,0,0,0,0,0,0,0,2,4
881200000000,13203,881200000000,wamv4/gps_wamv_link,0,0,-33.7243111598,150.673820172,-0.126678615783,0,0,0,0,0,0,0,0,0,2,4
881267000000,13204,881267000000,wamv4/gps_wamv_link,0,0,-33.724311276,150.673820152,-0.130345967179,0,0,0,0,0,0,0,0,0,2,4
881333000000,13205,881333000000,wamv4/gps_wamv_link,0,0,-33.7243113973,150.673820129,-0.134331407576,0,0,0,0,0,0,0,0,0,2,4
881400000000,13206,881400000000,wamv4/gps_wamv_link,0,0,-33.7243115268,150.673820101,-0.138771707744,0,0,0,0,0,0,0,0,0,2,4
881467000000,13207,881467000000,wamv4/gps_wamv_link,0,0,-33.7243116598,150.673820071,-0.143479491171,0,0,0,0,0,0,0,0,0,2,4
881533000000,13208,881533000000,wamv4/gps_wamv_link,0,0,-33.7243117902,150.673820042,-0.148079995291,0,0,0,0,0,0,0,0,0,2,4
881600000000,13209,881600000000,wamv4/gps_wamv_link,0,0,-33.7243119179,150.673820014,-0.152302200541,0,0,0,0,0,0,0,0,0,2,4
881667000000,13210,881667000000,wamv4/gps_wamv_link,0,0,-33.7243120386,150.673819986,-0.155712927027,0,0,0,0,0,0,0,0,0,2,4
881733000000,13211,881733000000,wamv4/gps_wamv_link,0,0,-33.7243121504,150.673819959,-0.158125832257,0,0,0,0,0,0,0,0,0,2,4
881800000000,13212,881800000000,wamv4/gps_wamv_link,0,0,-33.724312259,150.673819932,-0.159695093608,0,0,0,0,0,0,0,0,0,2,4
881867000000,13213,881867000000,wamv4/gps_wamv_link,0,0,-33.7243123668,150.673819903,-0.160611434341,0,0,0,0,0,0,0,0,0,2,4
881933000000,13214,881933000000,wamv4/gps_wamv_link,0,0,-33.7243124764,150.673819874,-0.161135840281,0,0,0,0,0,0,0,0,0,2,4
882000000000,13215,882000000000,wamv4/gps_wamv_link,0,0,-33.7243125939,150.673819843,-0.161506264342,0,0,0,0,0,0,0,0,0,2,4
882067000000,13216,882067000000,wamv4/gps_wamv_link,0,0,-33.7243127182,150.673819811,-0.16186098185,0,0,0,0,0,0,0,0,0,2,4
882133000000,13217,882133000000,wamv4/gps_wamv_link,0,0,-33.7243128451,150.673819778,-0.162224425683,0,0,0,0,0,0,0,0,0,2,4
882200000000,13218,882200000000,wamv4/gps_wamv_link,0,0,-33.7243129749,150.673819743,-0.162475392554,0,0,0,0,0,0,0,0,0,2,4
882267000000,13219,882267000000,wamv4/gps_wamv_link,0,0,-33.7243131012,150.673819709,-0.16233004337,0,0,0,0,0,0,0,0,0,2,4
882333000000,13220,882333000000,wamv4/gps_wamv_link,0,0,-33.7243132195,150.673819676,-0.16150601306,0,0,0,0,0,0,0,0,0,2,4
882400000000,13221,882400000000,wamv4/gps_wamv_link,0,0,-33.7243133322,150.673819646,-0.159818816973,0,0,0,0,0,0,0,0,0,2,4
882467000000,13222,882467000000,wamv4/gps_wamv_link,0,0,-33.7243134389,150.67381962,-0.157342744135,0,0,0,0,0,0,0,0,0,2,4
882533000000,13223,882533000000,wamv4/gps_wamv_link,0,0,-33.7243135414,150.673819595,-0.154384216635,0,0,0,0,0,0,0,0,0,2,4
882600000000,13224,882600000000,wamv4/gps_wamv_link,0,0,-33.7243136465,150.673819571,-0.15118080855,0,0,0,0,0,0,0,0,0,2,4
882667000000,13225,882667000000,wamv4/gps_wamv_link,0,0,-33.7243137561,150.673819545,-0.148073673186,0,0,0,0,0,0,0,0,0,2,4
882733000000,13226,882733000000,wamv4/gps_wamv_link,0,0,-33.7243138701,150.673819516,-0.145321065154,0,0,0,0,0,0,0,0,0,2,4
882800000000,13227,882800000000,wamv4/gps_wamv_link,0,0,-33.7243139915,150.673819483,-0.142952367559,0,0,0,0,0,0,0,0,0,2,4
882867000000,13228,882867000000,wamv4/gps_wamv_link,0,0,-33.724314116,150.673819449,-0.140979698243,0,0,0,0,0,0,0,0,0,2,4
882933000000,13229,882933000000,wamv4/gps_wamv_link,0,0,-33.7243142383,150.673819416,-0.139226914593,0,0,0,0,0,0,0,0,0,2,4
883000000000,13230,883000000000,wamv4/gps_wamv_link,0,0,-33.7243143584,150.673819384,-0.137333683604,0,0,0,0,0,0,0,0,0,2,4
883067000000,13231,883067000000,wamv4/gps_wamv_link,0,0,-33.7243144721,150.673819354,-0.135050231872,0,0,0,0,0,0,0,0,0,2,4
883133000000,13232,883133000000,wamv4/gps_wamv_link,0,0,-33.7243145779,150.673819326,-0.13231221459,0,0,0,0,0,0,0,0,0,2,4
883200000000,13233,883200000000,wamv4/gps_wamv_link,0,0,-33.7243146809,150.673819298,-0.129124703207,0,0,0,0,0,0,0,0,0,2,4
883267000000,13234,883267000000,wamv4/gps_wamv_link,0,0,-33.7243147831,150.673819268,-0.125740199382,0,0,0,0,0,0,0,0,0,2,4
883333000000,13235,883333000000,wamv4/gps_wamv_link,0,0,-33.7243148869,150.673819237,-0.122445493736,0,0,0,0,0,0,0,0,0,2,4
883400000000,13236,883400000000,wamv4/gps_wamv_link,0,0,-33.7243149984,150.673819202,-0.119334773747,0,0,0,0,0,0,0,0,0,2,4
883467000000,13237,883467000000,wamv4/gps_wamv_link,0,0,-33.7243151174,150.673819164,-0.116582775271,0,0,0,0,0,0,0,0,0,2,4
883533000000,13238,883533000000,wamv4/gps_wamv_link,0,0,-33.7243152404,150.673819124,-0.114238321748,0,0,0,0,0,0,0,0,0,2,4
883600000000,13239,883600000000,wamv4/gps_wamv_link,0,0,-33.7243153677,150.673819081,-0.112092698255,0,0,0,0,0,0,0,0,0,2,4
883667000000,13240,883667000000,wamv4/gps_wamv_link,0,0,-33.7243154933,150.673819038,-0.109898018972,0,0,0,0,0,0,0,0,0,2,4
883733000000,13241,883733000000,wamv4/gps_wamv_link,0,0,-33.7243156125,150.673818996,-0.107370940576,0,0,0,0,0,0,0,0,0,2,4
883800000000,13242,883800000000,wamv4/gps_wamv_link,0,0,-33.7243157275,150.673818954,-0.104228925828,0,0,0,0,0,0,0,0,0,2,4
883867000000,13243,883867000000,wamv4/gps_wamv_link,0,0,-33.7243158377,150.673818914,-0.100514152936,0,0,0,0,0,0,0,0,0,2,4
883933000000,13244,883933000000,wamv4/gps_wamv_link,0,0,-33.7243159442,150.673818875,-0.0964934388302,0,0,0,0,0,0,0,0,0,2,4
884000000000,13245,884000000000,wamv4/gps_wamv_link,0,0,-33.724316054,150.673818835,-0.092340396427,0,0,0,0,0,0,0,0,0,2,4
884067000000,13246,884067000000,wamv4/gps_wamv_link,0,0,-33.7243161687,150.673818793,-0.0884078555937,0,0,0,0,0,0,0,0,0,2,4
884133000000,13247,884133000000,wamv4/gps_wamv_link,0,0,-33.7243162882,150.673818749,-0.0849762863601,0,0,0,0,0,0,0,0,0,2,4
884200000000,13248,884200000000,wamv4/gps_wamv_link,0,0,-33.7243164156,150.673818703,-0.0820771569265,0,0,0,0,0,0,0,0,0,2,4
884267000000,13249,884267000000,wamv4/gps_wamv_link,0,0,-33.7243165466,150.673818655,-0.0797667902285,0,0,0,0,0,0,0,0,0,2,4
884333000000,13250,884333000000,wamv4/gps_wamv_link,0,0,-33.7243166757,150.673818608,-0.0779153814896,0,0,0,0,0,0,0,0,0,2,4
884400000000,13251,884400000000,wamv4/gps_wamv_link,0,0,-33.7243168033,150.673818561,-0.0762177136156,0,0,0,0,0,0,0,0,0,2,4
884467000000,13252,884467000000,wamv4/gps_wamv_link,0,0,-33.7243169252,150.673818517,-0.0744900146434,0,0,0,0,0,0,0,0,0,2,4
884533000000,13253,884533000000,wamv4/gps_wamv_link,0,0,-33.7243170397,150.673818475,-0.0727099349249,0,0,0,0,0,0,0,0,0,2,4
884600000000,13254,884600000000,wamv4/gps_wamv_link,0,0,-33.7243171521,150.673818435,-0.0709662454769,0,0,0,0,0,0,0,0,0,2,4
884667000000,13255,884667000000,wamv4/gps_wamv_link,0,0,-33.7243172641,150.673818394,-0.0695482991472,0,0,0,0,0,0,0,0,0,2,4
884733000000,13256,884733000000,wamv4/gps_wamv_link,0,0,-33.7243173776,150.673818353,-0.0687346481574,0,0,0,0,0,0,0,0,0,2,4
884800000000,13257,884800000000,wamv4/gps_wamv_link,0,0,-33.7243174986,150.673818308,-0.0687074849428,0,0,0,0,0,0,0,0,0,2,4
884867000000,13258,884867000000,wamv4/gps_wamv_link,0,0,-33.7243176262,150.67381826,-0.0696037354934,0,0,0,0,0,0,0,0,0,2,4
884933000000,13259,884933000000,wamv4/gps_wamv_link,0,0,-33.7243177569,150.67381821,-0.0713936099476,0,0,0,0,0,0,0,0,0,2,4
885000000000,13260,885000000000,wamv4/gps_wamv_link,0,0,-33.7243178919,150.673818156,-0.0739888126106,0,0,0,0,0,0,0,0,0,2,4
885067000000,13261,885067000000,wamv4/gps_wamv_link,0,0,-33.7243180257,150.673818102,-0.0770832947193,0,0,0,0,0,0,0,0,0,2,4
885133000000,13262,885133000000,wamv4/gps_wamv_link,0,0,-33.7243181535,150.67381805,-0.0802897877784,0,0,0,0,0,0,0,0,0,2,4
885200000000,13263,885200000000,wamv4/gps_wamv_link,0,0,-33.7243182779,150.673817998,-0.0834520491848,0,0,0,0,0,0,0,0,0,2,4
885267000000,13264,885267000000,wamv4/gps_wamv_link,0,0,-33.7243183978,150.673817947,-0.0864390755763,0,0,0,0,0,0,0,0,0,2,4
885333000000,13265,885333000000,wamv4/gps_wamv_link,0,0,-33.7243185138,150.673817896,-0.0892902209565,0,0,0,0,0,0,0,0,0,2,4
885400000000,13266,885400000000,wamv4/gps_wamv_link,0,0,-33.7243186328,150.673817841,-0.0922547246829,0,0,0,0,0,0,0,0,0,2,4
885467000000,13267,885467000000,wamv4/gps_wamv_link,0,0,-33.7243187563,150.673817784,-0.0954531192975,0,0,0,0,0,0,0,0,0,2,4
885533000000,13268,885533000000,wamv4/gps_wamv_link,0,0,-33.7243188841,150.673817723,-0.0989464376634,0,0,0,0,0,0,0,0,0,2,4
885600000000,13269,885600000000,wamv4/gps_wamv_link,0,0,-33.7243190199,150.673817659,-0.102880715962,0,0,0,0,0,0,0,0,0,2,4
885667000000,13270,885667000000,wamv4/gps_wamv_link,0,0,-33.7243191598,150.673817593,-0.107131164271,0,0,0,0,0,0,0,0,0,2,4
885733000000,13271,885733000000,wamv4/gps_wamv_link,0,0,-33.7243192982,150.673817528,-0.111417605794,0,0,0,0,0,0,0,0,0,2,4
885800000000,13272,885800000000,wamv4/gps_wamv_link,0,0,-33.7243194356,150.673817463,-0.115561241247,0,0,0,0,0,0,0,0,0,2,4
885867000000,13273,885867000000,wamv4/gps_wamv_link,0,0,-33.7243195676,150.673817398,-0.119209039948,0,0,0,0,0,0,0,0,0,2,4
885933000000,13274,885933000000,wamv4/gps_wamv_link,0,0,-33.7243196919,150.673817336,-0.122185549999,0,0,0,0,0,0,0,0,0,2,4
886000000000,13275,886000000000,wamv4/gps_wamv_link,0,0,-33.7243198139,150.673817273,-0.124644056476,0,0,0,0,0,0,0,0,0,2,4
886067000000,13276,886067000000,wamv4/gps_wamv_link,0,0,-33.7243199349,150.673817212,-0.126742323304,0,0,0,0,0,0,0,0,0,2,4
886133000000,13277,886133000000,wamv4/gps_wamv_link,0,0,-33.7243200566,150.673817151,-0.128702988255,0,0,0,0,0,0,0,0,0,2,4
886200000000,13278,886200000000,wamv4/gps_wamv_link,0,0,-33.7243201851,150.673817088,-0.130804397356,0,0,0,0,0,0,0,0,0,2,4
886267000000,13279,886267000000,wamv4/gps_wamv_link,0,0,-33.7243203195,150.673817023,-0.133168464746,0,0,0,0,0,0,0,0,0,2,4
886333000000,13280,886333000000,wamv4/gps_wamv_link,0,0,-33.7243204563,150.673816957,-0.135803730972,0,0,0,0,0,0,0,0,0,2,4
886400000000,13281,886400000000,wamv4/gps_wamv_link,0,0,-33.7243205968,150.673816889,-0.138709888308,0,0,0,0,0,0,0,0,0,2,4
886467000000,13282,886467000000,wamv4/gps_wamv_link,0,0,-33.7243207358,150.67381682,-0.141641780406,0,0,0,0,0,0,0,0,0,2,4
