t,field.header.seq,field.header.stamp,field.header.frame_id,field.status.status,field.status.service,Y,X,field.altitude,field.position_covariance0,field.position_covariance1,field.position_covariance2,field.position_covariance3,field.position_covariance4,field.position_covariance5,field.position_covariance6,field.position_covariance7,field.position_covariance8,field.position_covariance_type,trajectory_id
854200000000,12800,854200000000,wamv2/gps_wamv_link,0,0,-33.7241325718,150.673693685,-0.0756197705057,0,0,0,0,0,0,0,0,0,2,2
854267000000,12801,854267000000,wamv2/gps_wamv_link,0,0,-33.7241325453,150.673693697,-0.0812561146947,0,0,0,0,0,0,0,0,0,2,2
854333000000,12802,854333000000,wamv2/gps_wamv_link,0,0,-33.7241325128,150.673693721,-0.0976997005648,0,0,0,0,0,0,0,0,0,2,2
854400000000,12803,854400000000,wamv2/gps_wamv_link,0,0,-33.7241324759,150.673693744,-0.118627696239,0,0,0,0,0,0,0,0,0,2,2
854467000000,12804,854467000000,wamv2/gps_wamv_link,0,0,-33.7241324385,150.673693753,-0.135168043785,0,0,0,0,0,0,0,0,0,2,2
854533000000,12805,854533000000,wamv2/gps_wamv_link,0,0,-33.7241324025,150.673693741,-0.141458572898,0,0,0,0,0,0,0,0,0,2,2
854600000000,12806,854600000000,wamv2/gps_wamv_link,0,0,-33.7241323734,150.673693706,-0.137707121749,0,0,0,0,0,0,0,0,0,2,2
854667000000,12807,854667000000,wamv2/gps_wamv_link,0,0,-33.7241323605,150.673693658,-0.129038444875,0,0,0,0,0,0,0,0,0,2,2
854733000000,12808,854733000000,wamv2/gps_wamv_link,0,0,-33.7241323612,150.67369361,-0.122556625673,0,0,0,0,0,0,0,0,0,2,2
854800000000,12809,854800000000,wamv2/gps_wamv_link,0,0,-33.7241323704,150.673693573,-0.122867489982,0,0,0,0,0,0,0,0,0,2,2
854867000000,12810,854867000000,wamv2/gps_wamv_link,0,0,-33.7241323846,150.673693554,-0.130886635301,0,0,0,0,0,0,0,0,0,2,2
854933000000,12811,854933000000,wamv2/gps_wamv_link,0,0,-33.7241324087,150.673693554,-0.143483449616,0,0,0,0,0,0,0,0,0,2,2
855000000000,12812,855000000000,wamv2/gps_wamv_link,0,0,-33.7241324476,150.673693566,-0.156082655593,0,0,0,0,0,0,0,0,0,2,2
855067000000,12813,855067000000,wamv2/gps_wamv_link,0,0,-33.7241325003,150.673693582,-0.163636741622,0,0,0,0,0,0,0,0,0,2,2
855133000000,12814,855133000000,wamv2/gps_wamv_link,0,0,-33.7241325601,150.673693589,-0.163796733625,0,0,0,0,0,0,0,0,0,2,2
855200000000,12815,855200000000,wamv2/gps_wamv_link,0,0,-33.7241326228,150.67369358,-0.157830441363,0,0,0,0,0,0,0,0,0,2,2
855267000000,12816,855267000000,wamv2/gps_wamv_link,0,0,-33.7241326855,150.673693553,-0.14987798952,0,0,0,0,0,0,0,0,0,2,2
855333000000,12817,855333000000,wamv2/gps_wamv_link,0,0,-33.7241327507,150.673693515,-0.144803443595,0,0,0,0,0,0,0,0,0,2,2
855400000000,12818,855400000000,wamv2/gps_wamv_link,0,0,-33.7241328265,150.673693472,-0.145350951167,0,0,0,0,0,0,0,0,0,2,2
855467000000,12819,855467000000,wamv2/gps_wamv_link,0,0,-33.724132916,150.673693438,-0.151331615404,0,0,0,0,0,0,0,0,0,2,2
855533000000,12820,855533000000,wamv2/gps_wamv_link,0,0,-33.7241330166,150.673693418,-0.159540169011,0,0,0,0,0,0,0,0,0,2,2
855600000000,12821,855600000000,wamv2/gps_wamv_link,0,0,-33.7241331261,150.673693416,-0.166184560972,0,0,0,0,0,0,0,0,0,2,2
855667000000,12822,855667000000,wamv2/gps_wamv_link,0,0,-33.7241332363,150.67369343,-0.168071528799,0,0,0,0,0,0,0,0,0,2,2
855733000000,12823,855733000000,wamv2/gps_wamv_link,0,0,-33.7241333375,150.67369345,-0.164602346189,0,0,0,0,0,0,0,0,0,2,2
855800000000,12824,855800000000,wamv2/gps_wamv_link,0,0,-33.7241334384,150.673693469,-0.15744639751,0,0,0,0,0,0,0,0,0,2,2
855867000000,12825,855867000000,wamv2/gps_wamv_link,0,0,-33.7241335495,150.673693477,-0.14982882403,0,0,0,0,0,0,0,0,0,2,2
855933000000,12826,855933000000,wamv2/gps_wamv_link,0,0,-33.7241336791,150.673693471,-0.144878143889,0,0,0,0,0,0,0,0,0,2,2
856000000000,12827,856000000000,wamv2/gps_wamv_link,0,0,-33.7241338276,150.673693451,-0.14412423383,0,0,0,0,0,0,0,0,0,2,2
856067000000,12828,856067000000,wamv2/gps_wamv_link,0,0,-33.7241339819,150.673693422,-0.147356259815,0,0,0,0,0,0,0,0,0,2,2
856133000000,12829,856133000000,wamv2/gps_wamv_link,0,0,-33.7241341338,150.673693392,-0.152328875835,0,0,0,0,0,0,0,0,0,2,2
856200000000,12830,856200000000,wamv2/gps_wamv_link,0,0,-33.7241342865,150.67369337,-0.156248066756,0,0,0,0,0,0,0,0,0,2,2
856267000000,12831,856267000000,wamv2/gps_wamv_link,0,0,-33.724134442,150.673693361,-0.156712837133,0,0,0,0,0,0,0,0,0,2,2
856333000000,12832,856333000000,wamv2/gps_wamv_link,0,0,-33.7241346048,150.673693367,-0.153199198633,0,0,0,0,0,0,0,0,0,2,2
856400000000,12833,856400000000,wamv2/gps_wamv_link,0,0,-33.7241347823,150.673693384,-0.146825005411,0,0,0,0,0,0,0,0,0,2,2
856467000000,12834,856467000000,wamv2/gps_wamv_link,0,0,-33.7241349692,150.673693405,-0.139876621722,0,0,0,0,0,0,0,0,0,2,2
856533000000,12835,856533000000,wamv2/gps_wamv_link,0,0,-33.7241351572,150.67369342,-0.134484421895,0,0,0,0,0,0,0,0,0,2,2
856600000000,12836,856600000000,wamv2/gps_wamv_link,0,0,-33.7241353486,150.673693421,-0.131472210305,0,0,0,0,0,0,0,0,0,2,2
856667000000,12837,856667000000,wamv2/gps_wamv_link,0,0,-33.7241355418,150.673693406,-0.130717754223,0,0,0,0,0,0,0,0,0,2,2
856733000000,12838,856733000000,wamv2/gps_wamv_link,0,0,-33.7241357392,150.673693379,-0.131108828843,0,0,0,0,0,0,0,0,0,2,2
856800000000,12839,856800000000,wamv2/gps_wamv_link,0,0,-33.7241359516,150.673693347,-0.131186499217,0,0,0,0,0,0,0,0,0,2,2
856867000000,12840,856867000000,wamv2/gps_wamv_link,0,0,-33.7241361773,150.673693319,-0.129632431122,0,0,0,0,0,0,0,0,0,2,2
856933000000,12841,856933000000,wamv2/gps_wamv_link,0,0,-33.7241364066,150.673693303,-0.125894648408,0,0,0,0,0,0,0,0,0,2,2
857000000000,12842,857000000000,wamv2/gps_wamv_link,0,0,-33.72413664,150.673693303,-0.120169725782,0,0,0,0,0,0,0,0,0,2,2
857067000000,12843,857067000000,wamv2/gps_wamv_link,0,0,-33.7241368696,150.673693317,-0.113568945911,0,0,0,0,0,0,0,0,0,2,2
857133000000,12844,857133000000,wamv2/gps_wamv_link,0,0,-33.7241370925,150.673693339,-0.107451314609,0,0,0,0,0,0,0,0,0,2,2
857200000000,12845,857200000000,wamv2/gps_wamv_link,0,0,-33.7241373203,150.673693363,-0.102445519732,0,0,0,0,0,0,0,0,0,2,2
857267000000,12846,857267000000,wamv2/gps_wamv_link,0,0,-33.7241375556,150.673693381,-0.0987013861507,0,0,0,0,0,0,0,0,0,2,2
857333000000,12847,857333000000,wamv2/gps_wamv_link,0,0,-33.7241377975,150.673693388,-0.095754130803,0,0,0,0,0,0,0,0,0,2,2
857400000000,12848,857400000000,wamv2/gps_wamv_link,0,0,-33.7241380516,150.673693383,-0.0929564280698,0,0,0,0,0,0,0,0,0,2,2
857467000000,12849,857467000000,wamv2/gps_wamv_link,0,0,-33.7241383089,150.673693369,-0.0900596477616,0,0,0,0,0,0,0,0,0,2,2
857533000000,12850,857533000000,wamv2/gps_wamv_link,0,0,-33.7241385608,150.673693354,-0.0870808402105,0,0,0,0,0,0,0,0,0,2,2
857600000000,12851,857600000000,wamv2/gps_wamv_link,0,0,-33.7241388133,150.673693346,-0.0840185736074,0,0,0,0,0,0,0,0,0,2,2
857667000000,12852,857667000000,wamv2/gps_wamv_link,0,0,-33.7241390646,150.673693352,-0.0810421803404,0,0,0,0,0,0,0,0,0,2,2
857733000000,12853,857733000000,wamv2/gps_wamv_link,0,0,-33.7241393144,150.673693375,-0.0783544950284,0,0,0,0,0,0,0,0,0,2,2
857800000000,12854,857800000000,wamv2/gps_wamv_link,0,0,-33.7241395719,150.673693412,-0.0760433609448,0,0,0,0,0,0,0,0,0,2,2
857867000000,12855,857867000000,wamv2/gps_wamv_link,0,0,-33.7241398326,150.673693455,-0.0742072757257,0,0,0,0,0,0,0,0,0,2,2
857933000000,12856,857933000000,wamv2/gps_wamv_link,0,0,-33.7241400903,150.673693494,-0.0727495826597,0,0,0,0,0,0,0,0,0,2,2
858000000000,12857,858000000000,wamv2/gps_wamv_link,0,0,-33.7241403519,150.67369352,-0.071505232037,0,0,0,0,0,0,0,0,0,2,2
858067000000,12858,858067000000,wamv2/gps_wamv_link,0,0,-33.724140615,150.673693531,-0.0706229364394,0,0,0,0,0,0,0,0,0,2,2
858133000000,12859,858133000000,wamv2/gps_wamv_link,0,0,-33.7241408792,150.673693528,-0.0704938545614,0,0,0,0,0,0,0,0,0,2,2
858200000000,12860,858200000000,wamv2/gps_wamv_link,0,0,-33.7241411548,150.673693519,-0.0714756489542,0,0,0,0,0,0,0,0,0,2,2
858267000000,12861,858267000000,wamv2/gps_wamv_link,0,0,-33.7241414367,150.673693515,-0.0735452615178,0,0,0,0,0,0,0,0,0,2,2
858333000000,12862,858333000000,wamv2/gps_wamv_link,0,0,-33.7241417159,150.67369352,-0.0761532085854,0,0,0,0,0,0,0,0,0,2,2
858400000000,12863,858400000000,wamv2/gps_wamv_link,0,0,-33.7241419953,150.673693539,-0.0786836819974,0,0,0,0,0,0,0,0,0,2,2
858467000000,12864,858467000000,wamv2/gps_wamv_link,0,0,-33.7241422675,150.673693569,-0.0805934937555,0,0,0,0,0,0,0,0,0,2,2
858533000000,12865,858533000000,wamv2/gps_wamv_link,0,0,-33.7241425306,150.673693605,-0.0817609221033,0,0,0,0,0,0,0,0,0,2,2
858600000000,12866,858600000000,wamv2/gps_wamv_link,0,0,-33.7241427983,150.673693642,-0.0824468159845,0,0,0,0,0,0,0,0,0,2,2
858667000000,12867,858667000000,wamv2/gps_wamv_link,0,0,-33.7241430727,150.673693672,-0.0830473522653,0,0,0,0,0,0,0,0,0,2,2
858733000000,12868,858733000000,wamv2/gps_wamv_link,0,0,-33.7241433521,150.673693693,-0.0840544553245,0,0,0,0,0,0,0,0,0,2,2
858800000000,12869,858800000000,wamv2/gps_wamv_link,0,0,-33.7241436431,150.673693703,-0.0859927962362,0,0,0,0,0,0,0,0,0,2,2
858867000000,12870,858867000000,wamv2/gps_wamv_link,0,0,-33.7241439363,150.673693704,-0.0891217155749,0,0,0,0,0,0,0,0,0,2,2
858933000000,12871,858933000000,wamv2/gps_wamv_link,0,0,-33.7241442225,150.673693703,-0.0931735626749,0,0,0,0,0,0,0,0,0,2,2
859000000000,12872,859000000000,wamv2/gps_wamv_link,0,0,-33.7241445083,150.673693707,-0.0975946979025,0,0,0,0,0,0,0,0,0,2,2
859067000000,12873,859067000000,wamv2/gps_wamv_link,0,0,-33.7241447901,150.673693724,-0.101478455352,0,0,0,0,0,0,0,0,0,2,2
859133000000,12874,859133000000,wamv2/gps_wamv_link,0,0,-33.7241450663,150.673693756,-0.104229861803,0,0,0,0,0,0,0,0,0,2,2
859200000000,12875,859200000000,wamv2/gps_wamv_link,0,0,-33.7241453467,150.673693803,-0.105931453714,0,0,0,0,0,0,0,0,0,2,2
859267000000,12876,859267000000,wamv2/gps_wamv_link,0,0,-33.7241456269,150.673693856,-0.107006329222,0,0,0,0,0,0,0,0,0,2,2
859333000000,12877,859333000000,wamv2/gps_wamv_link,0,0,-33.7241459022,150.673693906,-0.108080764845,0,0,0,0,0,0,0,0,0,2,2
859400000000,12878,859400000000,wamv2/gps_wamv_link,0,0,-33.7241461814,150.673693945,-0.109743591079,0,0,0,0,0,0,0,0,0,2,2
859467000000,12879,859467000000,wamv2/gps_wamv_link,0,0,-33.7241464627,150.673693971,-0.112364309011,0,0,0,0,0,0,0,0,0,2,2
859533000000,12880,859533000000,wamv2/gps_wamv_link,0,0,-33.7241467452,150.673693987,-0.116030634365,0,0,0,0,0,0,0,0,0,2,2
859600000000,12881,859600000000,wamv2/gps_wamv_link,0,0,-33.7241470386,150.673694,-0.120680175148,0,0,0,0,0,0,0,0,0,2,2
859667000000,12882,859667000000,wamv2/gps_wamv_link,0,0,-33.7241473361,150.673694018,-0.125726386605,0,0,0,0,0,0,0,0,0,2,2
859733000000,12883,859733000000,wamv2/gps_wamv_link,0,0,-33.7241476281,150.673694045,-0.130375724375,0,0,0,0,0,0,0,0,0,2,2
859800000000,12884,859800000000,wamv2/gps_wamv_link,0,0,-33.7241479182,150.673694084,-0.134209441305,0,0,0,0,0,0,0,0,0,2,2
859867000000,12885,859867000000,wamv2/gps_wamv_link,0,0,-33.7241481999,150.673694131,-0.137034906557,0,0,0,0,0,0,0,0,0,2,2
859933000000,12886,859933000000,wamv2/gps_wamv_link,0,0,-33.7241484719,150.673694184,-0.139155824218,0,0,0,0,0,0,0,0,0,2,2
860000000000,12887,860000000000,wamv2/gps_wamv_link,0,0,-33.7241487484,150.673694238,-0.141146078264,0,0,0,0,0,0,0,0,0,2,2
860067000000,12888,860067000000,wamv2/gps_wamv_link,0,0,-33.7241490311,150.673694288,-0.143386723792,0,0,0,0,0,0,0,0,0,2,2
860133000000,12889,860133000000,wamv2/gps_wamv_link,0,0,-33.7241493179,150.673694328,-0.146056312482,0,0,0,0,0,0,0,0,0,2,2
860200000000,12890,860200000000,wamv2/gps_wamv_link,0,0,-33.7241496156,150.673694358,-0.149307468403,0,0,0,0,0,0,0,0,0,2,2
860267000000,12891,860267000000,wamv2/gps_wamv_link,0,0,-33.7241499159,150.673694379,-0.153029492098,0,0,0,0,0,0,0,0,0,2,2
860333000000,12892,860333000000,wamv2/gps_wamv_link,0,0,-33.7241502099,150.673694393,-0.156867500322,0,0,0,0,0,0,0,0,0,2,2
860400000000,12893,860400000000,wamv2/gps_wamv_link,0,0,-33.7241505041,150.67369441,-0.160420063529,0,0,0,0,0,0,0,0,0,2,2
860467000000,12894,860467000000,wamv2/gps_wamv_link,0,0,-33.724150794,150.673694436,-0.163058428325,0,0,0,0,0,0,0,0,0,2,2
860533000000,12895,860533000000,wamv2/gps_wamv_link,0,0,-33.7241510762,150.673694475,-0.164431062101,0,0,0,0,0,0,0,0,0,2,2
860600000000,12896,860600000000,wamv2/gps_wamv_link,0,0,-33.7241513606,150.673694525,-0.164616699872,0,0,0,0,0,0,0,0,0,2,2
860667000000,12897,860667000000,wamv2/gps_wamv_link,0,0,-33.7241516434,150.673694579,-0.163913624986,0,0,0,0,0,0,0,0,0,2,2
860733000000,12898,860733000000,wamv2/gps_wamv_link,0,0,-33.7241519212,150.673694627,-0.162749753103,0,0,0,0,0,0,0,0,0,2,2
860800000000,12899,860800000000,wamv2/gps_wamv_link,0,0,-33.724152204,150.673694666,-0.161423942263,0,0,0,0,0,0,0,0,0,2,2
860867000000,12900,860867000000,wamv2/gps_wamv_link,0,0,-33.72415249,150.673694693,-0.16019906447,0,0,0,0,0,0,0,0,0,2,2
860933000000,12901,860933000000,wamv2/gps_wamv_link,0,0,-33.7241527772,150.673694712,-0.159237832921,0,0,0,0,0,0,0,0,0,2,2
861000000000,12902,861000000000,wamv2/gps_wamv_link,0,0,-33.7241530739,150.673694729,-0.158486335088,0,0,0,0,0,0,0,0,0,2,2
861067000000,12903,861067000000,wamv2/gps_wamv_link,0,0,-33.7241533721,150.673694751,-0.157676443733,0,0,0,0,0,0,0,0,0,2,2
861133000000,12904,861133000000,wamv2/gps_wamv_link,0,0,-33.7241536617,150.67369478,-0.156358903322,0,0,0,0,0,0,0,0,0,2,2
861200000000,12905,861200000000,wamv2/gps_wamv_link,0,0,-33.7241539468,150.673694819,-0.154086154015,0,0,0,0,0,0,0,0,0,2,2
861267000000,12906,861267000000,wamv2/gps_wamv_link,0,0,-33.7241542216,150.673694867,-0.150777919551,0,0,0,0,0,0,0,0,0,2,2
861333000000,12907,861333000000,wamv2/gps_wamv_link,0,0,-33.7241544852,150.67369492,-0.146766457814,0,0,0,0,0,0,0,0,0,2,2
861400000000,12908,861400000000,wamv2/gps_wamv_link,0,0,-33.7241547517,150.673694977,-0.142371184064,0,0,0,0,0,0,0,0,0,2,2
861467000000,12909,861467000000,wamv2/gps_wamv_link,0,0,-33.7241550228,150.673695032,-0.138059835606,0,0,0,0,0,0,0,0,0,2,2
861533000000,12910,861533000000,wamv2/gps_wamv_link,0,0,-33.7241552967,150.673695081,-0.134183654224,0,0,0,0,0,0,0,0,0,2,2
861600000000,12911,861600000000,wamv2/gps_wamv_link,0,0,-33.7241555806,150.673695122,-0.130825387896,0,0,0,0,0,0,0,0,0,2,2
861667000000,12912,861667000000,wamv2/gps_wamv_link,0,0,-33.7241558665,150.673695153,-0.12813923437,0,0,0,0,0,0,0,0,0,2,2
861733000000,12913,861733000000,wamv2/gps_wamv_link,0,0,-33.7241561462,150.673695179,-0.126042437938,0,0,0,0,0,0,0,0,0,2,2
861800000000,12914,861800000000,wamv2/gps_wamv_link,0,0,-33.724156426,150.673695207,-0.124116583215,0,0,0,0,0,0,0,0,0,2,2
861867000000,12915,861867000000,wamv2/gps_wamv_link,0,0,-33.7241567012,150.673695243,-0.121919491767,0,0,0,0,0,0,0,0,0,2,2
861933000000,12916,861933000000,wamv2/gps_wamv_link,0,0,-33.7241569683,150.673695291,-0.119157592141,0,0,0,0,0,0,0,0,0,2,2
862000000000,12917,862000000000,wamv2/gps_wamv_link,0,0,-33.724157236,150.673695349,-0.11571799603,0,0,0,0,0,0,0,0,0,2,2
862067000000,12918,862067000000,wamv2/gps_wamv_link,0,0,-33.7241575007,150.673695412,-0.111879328444,0,0,0,0,0,0,0,0,0,2,2
862133000000,12919,862133000000,wamv2/gps_wamv_link,0,0,-33.7241577598,150.673695469,-0.108042759081,0,0,0,0,0,0,0,0,0,2,2
862200000000,12920,862200000000,wamv2/gps_wamv_link,0,0,-33.7241580237,150.673695517,-0.104409208005,0,0,0,0,0,0,0,0,0,2,2
862267000000,12921,862267000000,wamv2/gps_wamv_link,0,0,-33.724158292,150.673695554,-0.10130489343,0,0,0,0,0,0,0,0,0,2,2
862333000000,12922,862333000000,wamv2/gps_wamv_link,0,0,-33.7241585626,150.673695582,-0.0989423316169,0,0,0,0,0,0,0,0,0,2,2
862400000000,12923,862400000000,wamv2/gps_wamv_link,0,0,-33.7241588431,150.673695608,-0.0972455794097,0,0,0,0,0,0,0,0,0,2,2
862467000000,12924,862467000000,wamv2/gps_wamv_link,0,0,-33.7241591254,150.673695636,-0.0959669460378,0,0,0,0,0,0,0,0,0,2,2
862533000000,12925,862533000000,wamv2/gps_wamv_link,0,0,-33.7241593994,150.67369567,-0.0946112427554,0,0,0,0,0,0,0,0,0,2,2
862600000000,12926,862600000000,wamv2/gps_wamv_link,0,0,-33.7241596686,150.673695711,-0.0926432726398,0,0,0,0,0,0,0,0,0,2,2
862667000000,12927,862667000000,wamv2/gps_wamv_link,0,0,-33.7241599276,150.673695758,-0.0898768191041,0,0,0,0,0,0,0,0,0,2,2
862733000000,12928,862733000000,wamv2/gps_wamv_link,0,0,-33.7241601756,150.673695809,-0.0865452473209,0,0,0,0,0,0,0,0,0,2,2
862800000000,12929,862800000000,wamv2/gps_wamv_link,0,0,-33.7241604259,150.673695864,-0.0829588401084,0,0,0,0,0,0,0,0,0,2,2
862867000000,12930,862867000000,wamv2/gps_wamv_link,0,0,-33.7241606803,150.673695919,-0.0796031249782,0,0,0,0,0,0,0,0,0,2,2
862933000000,12931,862933000000,wamv2/gps_wamv_link,0,0,-33.7241609372,150.673695969,-0.0768587706938,0,0,0,0,0,0,0,0,0,2,2
863000000000,12932,863000000000,wamv2/gps_wamv_link,0,0,-33.7241612035,150.673696012,-0.0748703368564,0,0,0,0,0,0,0,0,0,2,2
863067000000,12933,863067000000,wamv2/gps_wamv_link,0,0,-33.7241614717,150.673696047,-0.0737727779415,0,0,0,0,0,0,0,0,0,2,2
863133000000,12934,863133000000,wamv2/gps_wamv_link,0,0,-33.724161734,150.673696077,-0.0734438921151,0,0,0,0,0,0,0,0,0,2,2
863200000000,12935,863200000000,wamv2/gps_wamv_link,0,0,-33.7241619956,150.673696109,-0.0735298606395,0,0,0,0,0,0,0,0,0,2,2
863267000000,12936,863267000000,wamv2/gps_wamv_link,0,0,-33.7241622518,150.67369615,-0.0736025303868,0,0,0,0,0,0,0,0,0,2,2
863333000000,12937,863333000000,wamv2/gps_wamv_link,0,0,-33.7241624989,150.673696202,-0.0733812895155,0,0,0,0,0,0,0,0,0,2,2
863400000000,12938,863400000000,wamv2/gps_wamv_link,0,0,-33.7241627449,150.673696265,-0.0728873585152,0,0,0,0,0,0,0,0,0,2,2
863467000000,12939,863467000000,wamv2/gps_wamv_link,0,0,-33.7241629871,150.673696333,-0.0724171921967,0,0,0,0,0,0,0,0,0,2,2
863533000000,12940,863533000000,wamv2/gps_wamv_link,0,0,-33.7241632235,150.673696398,-0.0723422138076,0,0,0,0,0,0,0,0,0,2,2
863600000000,12941,863600000000,wamv2/gps_wamv_link,0,0,-33.7241634643,150.673696455,-0.0729626493545,0,0,0,0,0,0,0,0,0,2,2
863667000000,12942,863667000000,wamv2/gps_wamv_link,0,0,-33.7241637092,150.673696502,-0.0744926378687,0,0,0,0,0,0,0,0,0,2,2
863733000000,12943,863733000000,wamv2/gps_wamv_link,0,0,-33.7241639566,150.673696541,-0.0770011086199,0,0,0,0,0,0,0,0,0,2,2
863800000000,12944,863800000000,wamv2/gps_wamv_link,0,0,-33.7241642131,150.673696577,-0.0805266634291,0,0,0,0,0,0,0,0,0,2,2
863867000000,12945,863867000000,wamv2/gps_wamv_link,0,0,-33.7241644713,150.673696615,-0.0847692057128,0,0,0,0,0,0,0,0,0,2,2
863933000000,12946,863933000000,wamv2/gps_wamv_link,0,0,-33.7241647222,150.673696655,-0.0891890283219,0,0,0,0,0,0,0,0,0,2,2
864000000000,12947,864000000000,wamv2/gps_wamv_link,0,0,-33.7241649689,150.673696702,-0.0934382500441,0,0,0,0,0,0,0,0,0,2,2
864067000000,12948,864067000000,wamv2/gps_wamv_link,0,0,-33.7241652066,150.673696753,-0.0971771464765,0,0,0,0,0,0,0,0,0,2,2
864133000000,12949,864133000000,wamv2/gps_wamv_link,0,0,-33.7241654343,150.673696807,-0.100394483001,0,0,0,0,0,0,0,0,0,2,2
864200000000,12950,864200000000,wamv2/gps_wamv_link,0,0,-33.724165664,150.673696863,-0.103429621135,0,0,0,0,0,0,0,0,0,2,2
864267000000,12951,864267000000,wamv2/gps_wamv_link,0,0,-33.7241658973,150.673696917,-0.106520121067,0,0,0,0,0,0,0,0,0,2,2
864333000000,12952,864333000000,wamv2/gps_wamv_link,0,0,-33.7241661334,150.673696965,-0.109849942421,0,0,0,0,0,0,0,0,0,2,2
864400000000,12953,864400000000,wamv2/gps_wamv_link,0,0,-33.7241663792,150.673697006,-0.113682404268,0,0,0,0,0,0,0,0,0,2,2
864467000000,12954,864467000000,wamv2/gps_wamv_link,0,0,-33.7241666283,150.673697039,-0.118023215082,0,0,0,0,0,0,0,0,0,2,2
864533000000,12955,864533000000,wamv2/gps_wamv_link,0,0,-33.7241668735,150.673697065,-0.122657321745,0,0,0,0,0,0,0,0,0,2,2
864600000000,12956,864600000000,wamv2/gps_wamv_link,0,0,-33.7241671192,150.673697093,-0.127353580602,0,0,0,0,0,0,0,0,0,2,2
864667000000,12957,864667000000,wamv2/gps_wamv_link,0,0,-33.7241673596,150.673697128,-0.13155122702,0,0,0,0,0,0,0,0,0,2,2
864733000000,12958,864733000000,wamv2/gps_wamv_link,0,0,-33.7241675904,150.673697172,-0.134831832311,0,0,0,0,0,0,0,0,0,2,2
864800000000,12959,864800000000,wamv2/gps_wamv_link,0,0,-33.7241678188,150.673697225,-0.137216975934,0,0,0,0,0,0,0,0,0,2,2
864867000000,12960,864867000000,wamv2/gps_wamv_link,0,0,-33.7241680423,150.673697283,-0.13886833679,0,0,0,0,0,0,0,0,0,2,2
864933000000,12961,864933000000,wamv2/gps_wamv_link,0,0,-33.7241682601,150.673697339,-0.140135407167,0,0,0,0,0,0,0,0,0,2,2
865000000000,12962,865000000000,wamv2/gps_wamv_link,0,0,-33.7241684822,150.673697389,-0.141410557417,0,0,0,0,0,0,0,0,0,2,2
865067000000,12963,865067000000,wamv2/gps_wamv_link,0,0,-33.7241687085,150.673697432,-0.142946968792,0,0,0,0,0,0,0,0,0,2,2
865133000000,12964,865133000000,wamv2/gps_wamv_link,0,0,-33.7241689372,150.67369747,-0.144875265214,0,0,0,0,0,0,0,0,0,2,2
865200000000,12965,865200000000,wamv2/gps_wamv_link,0,0,-33.7241691739,150.673697506,-0.147256947944,0,0,0,0,0,0,0,0,0,2,2
865267000000,12966,865267000000,wamv2/gps_wamv_link,0,0,-33.7241694111,150.673697543,-0.149851589494,0,0,0,0,0,0,0,0,0,2,2
865333000000,12967,865333000000,wamv2/gps_wamv_link,0,0,-33.7241696404,150.673697583,-0.15223114018,0,0,0,0,0,0,0,0,0,2,2
865400000000,12968,865400000000,wamv2/gps_wamv_link,0,0,-33.724169865,150.673697628,-0.154074090652,0,0,0,0,0,0,0,0,0,2,2
865467000000,12969,865467000000,wamv2/gps_wamv_link,0,0,-33.7241700808,150.673697679,-0.155148571875,0,0,0,0,0,0,0,0,0,2,2
865533000000,12970,865533000000,wamv2/gps_wamv_link,0,0,-33.7241702873,150.673697734,-0.155545826264,0,0,0,0,0,0,0,0,0,2,2
865600000000,12971,865600000000,wamv2/gps_wamv_link,0,0,-33.7241704954,150.673697793,-0.155560065763,0,0,0,0,0,0,0,0,0,2,2
865667000000,12972,865667000000,wamv2/gps_wamv_link,0,0,-33.7241707064,150.673697851,-0.15549774044,0,0,0,0,0,0,0,0,0,2,2
865733000000,12973,865733000000,wamv2/gps_wamv_link,0,0,-33.7241709197,150.673697904,-0.15560223754,0,0,0,0,0,0,0,0,0,2,2
865800000000,12974,865800000000,wamv2/gps_wamv_link,0,0,-33.7241711417,150.673697948,-0.156033139251,0,0,0,0,0,0,0,0,0,2,2
865867000000,12975,865867000000,wamv2/gps_wamv_link,0,0,-33.7241713672,150.673697984,-0.156843679831,0,0,0,0,0,0,0,0,0,2,2
865933000000,12976,865933000000,wamv2/gps_wamv_link,0,0,-33.7241715898,150.673698015,-0.157901194215,0,0,0,0,0,0,0,0,0,2,2
866000000000,12977,866000000000,wamv2/gps_wamv_link,0,0,-33.7241718137,150.673698047,-0.158913428888,0,0,0,0,0,0,0,0,0,2,2
866067000000,12978,866067000000,wamv2/gps_wamv_link,0,0,-33.7241720339,150.673698084,-0.159413199385,0,0,0,0,0,0,0,0,0,2,2
866133000000,12979,866133000000,wamv2/gps_wamv_link,0,0,-33.7241722458,150.673698128,-0.159040838063,0,0,0,0,0,0,0,0,0,2,2
866200000000,12980,866200000000,wamv2/gps_wamv_link,0,0,-33.7241724555,150.67369818,-0.157661662008,0,0,0,0,0,0,0,0,0,2,2
866267000000,12981,866267000000,wamv2/gps_wamv_link,0,0,-33.7241726605,150.673698234,-0.155417252286,0,0,0,0,0,0,0,0,0,2,2
866333000000,12982,866333000000,wamv2/gps_wamv_link,0,0,-33.72417286,150.673698286,-0.15265427293,0,0,0,0,0,0,0,0,0,2,2
866400000000,12983,866400000000,wamv2/gps_wamv_link,0,0,-33.7241730636,150.673698332,-0.149607027522,0,0,0,0,0,0,0,0,0,2,2
866467000000,12984,866467000000,wamv2/gps_wamv_link,0,0,-33.7241732723,150.673698372,-0.146580639064,0,0,0,0,0,0,0,0,0,2,2
866533000000,12985,866533000000,wamv2/gps_wamv_link,0,0,-33.7241734844,150.673698406,-0.143790190051,0,0,0,0,0,0,0,0,0,2,2
866600000000,12986,866600000000,wamv2/gps_wamv_link,0,0,-33.7241737045,150.67369844,-0.14117872187,0,0,0,0,0,0,0,0,0,2,2
866667000000,12987,866667000000,wamv2/gps_wamv_link,0,0,-33.7241739248,150.673698474,-0.138612109519,0,0,0,0,0,0,0,0,0,2,2
866733000000,12988,866733000000,wamv2/gps_wamv_link,0,0,-33.7241741371,150.673698512,-0.135781713501,0,0,0,0,0,0,0,0,0,2,2
866800000000,12989,866800000000,wamv2/gps_wamv_link,0,0,-33.7241743442,150.673698554,-0.132244061913,0,0,0,0,0,0,0,0,0,2,2
866867000000,12990,866867000000,wamv2/gps_wamv_link,0,0,-33.7241745425,150.673698601,-0.127879959094,0,0,0,0,0,0,0,0,0,2,2
866933000000,12991,866933000000,wamv2/gps_wamv_link,0,0,-33.7241747317,150.673698652,-0.122905628321,0,0,0,0,0,0,0,0,0,2,2
867000000000,12992,867000000000,wamv2/gps_wamv_link,0,0,-33.724174922,150.673698708,-0.117511223421,0,0,0,0,0,0,0,0,0,2,2
867067000000,12993,867067000000,wamv2/gps_wamv_link,0,0,-33.7241751148,150.673698766,-0.11216184122,0,0,0,0,0,0,0,0,0,2,2
867133000000,12994,867133000000,wamv2/gps_wamv_link,0,0,-33.7241753092,150.67369882,-0.107257051682,0,0,0,0,0,0,0,0,0,2,2
867200000000,12995,867200000000,wamv2/gps_wamv_link,0,0,-33.724175511,150.673698868,-0.102874951358,0,0,0,0,0,0,0,0,0,2,2
867267000000,12996,867267000000,wamv2/gps_wamv_link,0,0,-33.724175715,150.67369891,-0.0992079265742,0,0,0,0,0,0,0,0,0,2,2
867333000000,12997,867333000000,wamv2/gps_wamv_link,0,0,-33.7241759158,150.673698947,-0.0962528000361,0,0,0,0,0,0,0,0,0,2,2
867400000000,12998,867400000000,wamv2/gps_wamv_link,0,0,-33.7241761172,150.673698986,-0.0936978698259,0,0,0,0,0,0,0,0,0,2,2
867467000000,12999,867467000000,wamv2/gps_wamv_link,0,0,-33.7241763146,150.673699031,-0.0912604475925,0,0,0,0,0,0,0,0,0,2,2
867533000000,13000,867533000000,wamv2/gps_wamv_link,0,0,-33.7241765038,150.673699083,-0.088713146905,0,0,0,0,0,0,0,0,0,2,2
867600000000,13001,867600000000,wamv2/gps_wamv_link,0,0,-33.7241766905,150.673699144,-0.085919868007,0,0,0,0,0,0,0,0,0,2,2
867667000000,13002,867667000000,wamv2/gps_wamv_link,0,0,-33.7241768729,150.673699207,-0.0830752781944,0,0,0,0,0,0,0,0,0,2,2
867733000000,13003,867733000000,wamv2/gps_wamv_link,0,0,-33.7241770502,150.673699267,-0.0804859720623,0,0,0,0,0,0,0,0,0,2,2
867800000000,13004,867800000000,wamv2/gps_wamv_link,0,0,-33.7241772311,150.673699322,-0.0783302913375,0,0,0,0,0,0,0,0,0,2,2
867867000000,13005,867867000000,wamv2/gps_wamv_link,0,0,-33.7241774165,150.673699371,-0.0768477168711,0,0,0,0,0,0,0,0,0,2,2
867933000000,13006,867933000000,wamv2/gps_wamv_link,0,0,-33.7241776051,150.673699414,-0.0761604981546,0,0,0,0,0,0,0,0,0,2,2
868000000000,13007,868000000000,wamv2/gps_wamv_link,0,0,-33.7241778016,150.673699455,-0.0762449711601,0,0,0,0,0,0,0,0,0,2,2
868067000000,13008,868067000000,wamv2/gps_wamv_link,0,0,-33.7241779996,150.673699496,-0.0769353717184,0,0,0,0,0,0,0,0,0,2,2
868133000000,13009,868133000000,wamv2/gps_wamv_link,0,0,-33.7241781912,150.673699539,-0.077861881236,0,0,0,0,0,0,0,0,0,2,2
868200000000,13010,868200000000,wamv2/gps_wamv_link,0,0,-33.7241783787,150.673699584,-0.0786576331042,0,0,0,0,0,0,0,0,0,2,2
868267000000,13011,868267000000,wamv2/gps_wamv_link,0,0,-33.7241785582,150.673699633,-0.0790516909116,0,0,0,0,0,0,0,0,0,2,2
868333000000,13012,868333000000,wamv2/gps_wamv_link,0,0,-33.724178729,150.673699686,-0.0790384020002,0,0,0,0,0,0,0,0,0,2,2
868400000000,13013,868400000000,wamv2/gps_wamv_link,0,0,-33.7241789001,150.673699742,-0.0788146099057,0,0,0,0,0,0,0,0,0,2,2
868467000000,13014,868467000000,wamv2/gps_wamv_link,0,0,-33.7241790728,150.673699799,-0.0786617757488,0,0,0,0,0,0,0,0,0,2,2
868533000000,13015,868533000000,wamv2/gps_wamv_link,0,0,-33.724179247,150.673699853,-0.0788391287037,0,0,0,0,0,0,0,0,0,2,2
868600000000,13016,868600000000,wamv2/gps_wamv_link,0,0,-33.7241794282,150.673699902,-0.0795491893133,0,0,0,0,0,0,0,0,0,2,2
868667000000,13017,868667000000,wamv2/gps_wamv_link,0,0,-33.7241796124,150.673699945,-0.0808921889291,0,0,0,0,0,0,0,0,0,2,2
868733000000,13018,868733000000,wamv2/gps_wamv_link,0,0,-33.7241797943,150.673699983,-0.0827823312392,0,0,0,0,0,0,0,0,0,2,2
868800000000,13019,868800000000,wamv2/gps_wamv_link,0,0,-33.7241799769,150.673700023,-0.0850449016434,0,0,0,0,0,0,0,0,0,2,2
868867000000,13020,868867000000,wamv2/gps_wamv_link,0,0,-33.7241801552,150.673700069,-0.0873088786086,0,0,0,0,0,0,0,0,0,2,2
868933000000,13021,868933000000,wamv2/gps_wamv_link,0,0,-33.724180325,150.673700121,-0.0892552934618,0,0,0,0,0,0,0,0,0,2,2
869000000000,13022,869000000000,wamv2/gps_wamv_link,0,0,-33.7241804912,150.673700181,-0.0908581665479,0,0,0,0,0,0,0,0,0,2,2
869067000000,13023,869067000000,wamv2/gps_wamv_link,0,0,-33.724180652,150.673700245,-0.0922352065309,0,0,0,0,0,0,0,0,0,2,2
869133000000,13024,869133000000,wamv2/gps_wamv_link,0,0,-33.7241808077,150.673700307,-0.0936527457812,0,0,0,0,0,0,0,0,0,2,2
869200000000,13025,869200000000,wamv2/gps_wamv_link,0,0,-33.7241809665,150.673700367,-0.0954498858322,0,0,0,0,0,0,0,0,0,2,2
869267000000,13026,869267000000,wamv2/gps_wamv_link,0,0,-33.7241811293,150.673700422,-0.0978392655484,0,0,0,0,0,0,0,0,0,2,2
869333000000,13027,869333000000,wamv2/gps_wamv_link,0,0,-33.7241812949,150.673700473,-0.100905693375,0,0,0,0,0,0,0,0,0,2,2
869400000000,13028,869400000000,wamv2/gps_wamv_link,0,0,-33.7241814673,150.673700522,-0.104751494119,0,0,0,0,0,0,0,0,0,2,2
869467000000,13029,869467000000,wamv2/gps_wamv_link,0,0,-33.7241816406,150.67370057,-0.109174856492,0,0,0,0,0,0,0,0,0,2,2
869533000000,13030,869533000000,wamv2/gps_wamv_link,0,0,-33.7241818082,150.673700618,-0.113783042375,0,0,0,0,0,0,0,0,0,2,2
869600000000,13031,869600000000,wamv2/gps_wamv_link,0,0,-33.7241819723,150.67370067,-0.118346743198,0,0,0,0,0,0,0,0,0,2,2
869667000000,13032,869667000000,wamv2/gps_wamv_link,0,0,-33.7241821293,150.673700725,-0.122533534738,0,0,0,0,0,0,0,0,0,2,2
869733000000,13033,869733000000,wamv2/gps_wamv_link,0,0,-33.7241822788,150.673700784,-0.126236521761,0,0,0,0,0,0,0,0,0,2,2
869800000000,13034,869800000000,wamv2/gps_wamv_link,0,0,-33.7241824284,150.673700846,-0.129696749853,0,0,0,0,0,0,0,0,0,2,2
869867000000,13035,869867000000,wamv2/gps_wamv_link,0,0,-33.7241825795,150.673700907,-0.133064694419,0,0,0,0,0,0,0,0,0,2,2
869933000000,13036,869933000000,wamv2/gps_wamv_link,0,0,-33.7241827322,150.673700964,-0.136481486289,0,0,0,0,0,0,0,0,0,2,2
870000000000,13037,870000000000,wamv2/gps_wamv_link,0,0,-33.7241828917,150.673701014,-0.140183690943,0,0,0,0,0,0,0,0,0,2,2
870067000000,13038,870067000000,wamv2/gps_wamv_link,0,0,-33.7241830552,150.673701058,-0.144165793752,0,0,0,0,0,0,0,0,0,2,2
870133000000,13039,870133000000,wamv2/gps_wamv_link,0,0,-33.7241832182,150.673701097,-0.148269331963,0,0,0,0,0,0,0,0,0,2,2
870200000000,13040,870200000000,wamv2/gps_wamv_link,0,0,-33.7241833832,150.673701136,-0.152352275464,0,0,0,0,0,0,0,0,0,2,2
870267000000,13041,870267000000,wamv2/gps_wamv_link,0,0,-33.7241835452,150.673701179,-0.15596625179,0,0,0,0,0,0,0,0,0,2,2
870333000000,13042,870333000000,wamv2/gps_wamv_link,0,0,-33.7241836997,150.673701227,-0.15872278759,0,0,0,0,0,0,0,0,0,2,2
870400000000,13043,870400000000,wamv2/gps_wamv_link,0,0,-33.7241838505,150.673701281,-0.160539107371,0,0,0,0,0,0,0,0,0,2,2
870467000000,13044,870467000000,wamv2/gps_wamv_link,0,0,-33.724183996,150.673701337,-0.161436704647,0,0,0,0,0,0,0,0,0,2,2
870533000000,13045,870533000000,wamv2/gps_wamv_link,0,0,-33.7241841367,150.673701392,-0.161658618207,0,0,0,0,0,0,0,0,0,2,2
870600000000,13046,870600000000,wamv2/gps_wamv_link,0,0,-33.7241842806,150.673701444,-0.161502787705,0,0,0,0,0,0,0,0,0,2,2
870667000000,13047,870667000000,wamv2/gps_wamv_link,0,0,-33.7241844285,150.673701494,-0.161216110438,0,0,0,0,0,0,0,0,0,2,2
870733000000,13048,870733000000,wamv2/gps_wamv_link,0,0,-33.7241845796,150.67370154,-0.160968410535,0,0,0,0,0,0,0,0,0,2,2
870800000000,13049,870800000000,wamv2/gps_wamv_link,0,0,-33.7241847371,150.673701585,-0.160794587831,0,0,0,0,0,0,0,0,0,2,2
870867000000,13050,870867000000,wamv2/gps_wamv_link,0,0,-33.7241848952,150.673701629,-0.160583676607,0,0,0,0,0,0,0,0,0,2,2
870933000000,13051,870933000000,wamv2/gps_wamv_link,0,0,-33.7241850475,150.673701674,-0.160091823513,0,0,0,0,0,0,0,0,0,2,2
871000000000,13052,871000000000,wamv2/gps_wamv_link,0,0,-33.7241851957,150.673701723,-0.159024368852,0,0,0,0,0,0,0,0,0,2,2
871067000000,13053,871067000000,wamv2/gps_wamv_link,0,0,-33.7241853369,150.673701776,-0.157224459267,0,0,0,0,0,0,0,0,0,2,2
871133000000,13054,871133000000,wamv2/gps_wamv_link,0,0,-33.7241854707,150.673701833,-0.154782147019,0,0,0,0,0,0,0,0,0,2,2
871200000000,13055,871200000000,wamv2/gps_wamv_link,0,0,-33.7241856042,150.673701895,-0.151849070151,0,0,0,0,0,0,0,0,0,2,2
871267000000,13056,871267000000,wamv2/gps_wamv_link,0,0,-33.7241857386,150.673701959,-0.14875823478,0,0,0,0,0,0,0,0,0,2,2
871333000000,13057,871333000000,wamv2/gps_wamv_link,0,0,-33.724185874,150.673702019,-0.145823706127,0,0,0,0,0,0,0,0,0,2,2
871400000000,13058,871400000000,wamv2/gps_wamv_link,0,0,-33.7241860152,150.673702074,-0.143148679734,0,0,0,0,0,0,0,0,0,2,2
871467000000,13059,871467000000,wamv2/gps_wamv_link,0,0,-33.7241861597,150.673702123,-0.140878052543,0,0,0,0,0,0,0,0,0,2,2
871533000000,13060,871533000000,wamv2/gps_wamv_link,0,0,-33.724186304,150.673702168,-0.139009543965,0,0,0,0,0,0,0,0,0,2,2
871600000000,13061,871600000000,wamv2/gps_wamv_link,0,0,-33.7241864503,150.673702213,-0.137307936439,0,0,0,0,0,0,0,0,0,2,2
871667000000,13062,871667000000,wamv2/gps_wamv_link,0,0,-33.7241865943,150.673702263,-0.135513565057,0,0,0,0,0,0,0,0,0,2,2
871733000000,13063,871733000000,wamv2/gps_wamv_link,0,0,-33.724186732,150.673702316,-0.133385300976,0,0,0,0,0,0,0,0,0,2,2
871800000000,13064,871800000000,wamv2/gps_wamv_link,0,0,-33.7241868666,150.673702375,-0.130724355504,0,0,0,0,0,0,0,0,0,2,2
871867000000,13065,871867000000,wamv2/gps_wamv_link,0,0,-33.7241869966,150.673702436,-0.127610032574,0,0,0,0,0,0,0,0,0,2,2
871933000000,13066,871933000000,wamv2/gps_wamv_link,0,0,-33.7241871225,150.673702493,-0.124280439882,0,0,0,0,0,0,0,0,0,2,2
872000000000,13067,872000000000,wamv2/gps_wamv_link,0,0,-33.7241872516,150.673702548,-0.120863748811,0,0,0,0,0,0,0,0,0,2,2
872067000000,13068,872067000000,wamv2/gps_wamv_link,0,0,-33.7241873851,150.673702599,-0.117616339131,0,0,0,0,0,0,0,0,0,2,2
872133000000,13069,872133000000,wamv2/gps_wamv_link,0,0,-33.7241875224,150.673702646,-0.114722285739,0,0,0,0,0,0,0,0,0,2,2
872200000000,13070,872200000000,wamv2/gps_wamv_link,0,0,-33.7241876665,150.673702691,-0.112133141281,0,0,0,0,0,0,0,0,0,2,2
872267000000,13071,872267000000,wamv2/gps_wamv_link,0,0,-33.7241878121,150.673702735,-0.109788032326,0,0,0,0,0,0,0,0,0,2,2
872333000000,13072,872333000000,wamv2/gps_wamv_link,0,0,-33.7241879532,150.673702779,-0.107471270631,0,0,0,0,0,0,0,0,0,2,2
872400000000,13073,872400000000,wamv2/gps_wamv_link,0,0,-33.7241880911,150.673702825,-0.104814460894,0,0,0,0,0,0,0,0,0,2,2
872467000000,13074,872467000000,wamv2/gps_wamv_link,0,0,-33.7241882225,150.673702874,-0.101647710708,0,0,0,0,0,0,0,0,0,2,2
872533000000,13075,872533000000,wamv2/gps_wamv_link,0,0,-33.7241883469,150.673702926,-0.0980238494955,0,0,0,0,0,0,0,0,0,2,2
872600000000,13076,872600000000,wamv2/gps_wamv_link,0,0,-33.7241884707,150.673702983,-0.0940145546501,0,0,0,0,0,0,0,0,0,2,2
872667000000,13077,872667000000,wamv2/gps_wamv_link,0,0,-33.7241885951,150.673703041,-0.0899543840534,0,0,0,0,0,0,0,0,0,2,2
872733000000,13078,872733000000,wamv2/gps_wamv_link,0,0,-33.7241887203,150.673703097,-0.0861840306917,0,0,0,0,0,0,0,0,0,2,2
872800000000,13079,872800000000,wamv2/gps_wamv_link,0,0,-33.7241888509,150.673703149,-0.0828175194227,0,0,0,0,0,0,0,0,0,2,2
872867000000,13080,872867000000,wamv2/gps_wamv_link,0,0,-33.7241889848,150.673703197,-0.080056328409,0,0,0,0,0,0,0,0,0,2,2
872933000000,13081,872933000000,wamv2/gps_wamv_link,0,0,-33.7241891183,150.673703241,-0.0779442327741,0,0,0,0,0,0,0,0,0,2,2
873000000000,13082,873000000000,wamv2/gps_wamv_link,0,0,-33.7241892532,150.673703286,-0.0762882551186,0,0,0,0,0,0,0,0,0,2,2
873067000000,13083,873067000000,wamv2/gps_wamv_link,0,0,-33.7241893853,150.673703335,-0.0748912379938,0,0,0,0,0,0,0,0,0,2,2
873133000000,13084,873133000000,wamv2/gps_wamv_link,0,0,-33.7241895109,150.673703389,-0.073554673351,0,0,0,0,0,0,0,0,0,2,2
873200000000,13085,873200000000,wamv2/gps_wamv_link,0,0,-33.7241896328,150.673703448,-0.0721573752948,0,0,0,0,0,0,0,0,0,2,2
873267000000,13086,873267000000,wamv2/gps_wamv_link,0,0,-33.7241897501,150.67370351,-0.0708175478905,0,0,0,0,0,0,0,0,0,2,2
873333000000,13087,873333000000,wamv2/gps_wamv_link,0,0,-33.7241898634,150.673703571,-0.0697696928586,0,0,0,0,0,0,0,0,0,2,2
873400000000,13088,873400000000,wamv2/gps_wamv_link,0,0,-33.7241899793,150.673703631,-0.069226598875,0,0,0,0,0,0,0,0,0,2,2
873467000000,13089,873467000000,wamv2/gps_wamv_link,0,0,-33.7241900991,150.673703687,-0.0694090283934,0,0,0,0,0,0,0,0,0,2,2
873533000000,13090,873533000000,wamv2/gps_wamv_link,0,0,-33.7241902221,150.673703739,-0.0704188633461,0,0,0,0,0,0,0,0,0,2,2
873600000000,13091,873600000000,wamv2/gps_wamv_link,0,0,-33.7241903514,150.673703789,-0.0723059932332,0,0,0,0,0,0,0,0,0,2,2
873667000000,13092,873667000000,wamv2/gps_wamv_link,0,0,-33.7241904822,150.673703837,-0.0749435983277,0,0,0,0,0,0,0,0,0,2,2
873733000000,13093,873733000000,wamv2/gps_wamv_link,0,0,-33.7241906096,150.673703883,-0.0780248772297,0,0,0,0,0,0,0,0,0,2,2
873800000000,13094,873800000000,wamv2/gps_wamv_link,0,0,-33.7241907346,150.673703932,-0.0813225701806,0,0,0,0,0,0,0,0,0,2,2
873867000000,13095,873867000000,wamv2/gps_wamv_link,0,0,-33.7241908543,150.673703983,-0.0845267495672,0,0,0,0,0,0,0,0,0,2,2
873933000000,13096,873933000000,wamv2/gps_wamv_link,0,0,-33.724190968,150.673704036,-0.0874857781112,0,0,0,0,0,0,0,0,0,2,2
874000000000,13097,874000000000,wamv2/gps_wamv_link,0,0,-33.7241910813,150.673704092,-0.0903474331607,0,0,0,0,0,0,0,0,0,2,2
874067000000,13098,874067000000,wamv2/gps_wamv_link,0,0,-33.7241911951,150.673704148,-0.0932243107396,0,0,0,0,0,0,0,0,0,2,2
874133000000,13099,874133000000,wamv2/gps_wamv_link,0,0,-33.7241913099,150.673704199,-0.096245328593,0,0,0,0,0,0,0,0,0,2,2
874200000000,13100,874200000000,wamv2/gps_wamv_link,0,0,-33.7241914304,150.673704246,-0.0996394836688,0,0,0,0,0,0,0,0,0,2,2
874267000000,13101,874267000000,wamv2/gps_wamv_link,0,0,-33.7241915548,150.673704288,-0.103426932099,0,0,0,0,0,0,0,0,0,2,2
874333000000,13102,874333000000,wamv2/gps_wamv_link,0,0,-33.72419168,150.673704327,-0.10749161394,0,0,0,0,0,0,0,0,0,2,2
874400000000,13103,874400000000,wamv2/gps_wamv_link,0,0,-33.7241918075,150.673704366,-0.111764568811,0,0,0,0,0,0,0,0,0,2,2
874467000000,13104,874467000000,wamv2/gps_wamv_link,0,0,-33.7241919327,150.673704407,-0.115887018317,0,0,0,0,0,0,0,0,0,2,2
874533000000,13105,874533000000,wamv2/gps_wamv_link,0,0,-33.7241920515,150.673704452,-0.119515029001,0,0,0,0,0,0,0,0,0,2,2
874600000000,13106,874600000000,wamv2/gps_wamv_link,0,0,-33.7241921665,150.673704501,-0.122600204527,0,0,0,0,0,0,0,0,0,2,2
874667000000,13107,874667000000,wamv2/gps_wamv_link,0,0,-33.7241922766,150.673704552,-0.125116870222,0,0,0,0,0,0,0,0,0,2,2
874733000000,13108,874733000000,wamv2/gps_wamv_link,0,0,-33.7241923825,150.673704602,-0.127224227766,0,0,0,0,0,0,0,0,0,2,2
874800000000,13109,874800000000,wamv2/gps_wamv_link,0,0,-33.7241924906,150.673704653,-0.129232512117,0,0,0,0,0,0,0,0,0,2,2
874867000000,13110,874867000000,wamv2/gps_wamv_link,0,0,-33.7241926022,150.673704702,-0.131331962081,0,0,0,0,0,0,0,0,0,2,2
874933000000,13111,874933000000,wamv2/gps_wamv_link,0,0,-33.7241927167,150.673704748,-0.133636886183,0,0,0,0,0,0,0,0,0,2,2
875000000000,13112,875000000000,wamv2/gps_wamv_link,0,0,-33.7241928366,150.673704793,-0.136265785046,0,0,0,0,0,0,0,0,0,2,2
875067000000,13113,875067000000,wamv2/gps_wamv_link,0,0,-33.7241929574,150.673704836,-0.13910808986,0,0,0,0,0,0,0,0,0,2,2
875133000000,13114,875133000000,wamv2/gps_wamv_link,0,0,-33.7241930743,150.673704878,-0.141924096163,0,0,0,0,0,0,0,0,0,2,2
875200000000,13115,875200000000,wamv2/gps_wamv_link,0,0,-33.7241931886,150.673704923,-0.144553868739,0,0,0,0,0,0,0,0,0,2,2
875267000000,13116,875267000000,wamv2/gps_wamv_link,0,0,-33.7241932977,150.673704971,-0.146766562158,0,0,0,0,0,0,0,0,0,2,2
875333000000,13117,875333000000,wamv2/gps_wamv_link,0,0,-33.724193401,150.673705023,-0.148497714779,0,0,0,0,0,0,0,0,0,2,2
875400000000,13118,875400000000,wamv2/gps_wamv_link,0,0,-33.7241935035,150.673705078,-0.149907109759,0,0,0,0,0,0,0,0,0,2,2
875467000000,13119,875467000000,wamv2/gps_wamv_link,0,0,-33.7241936061,150.673705135,-0.151155437881,0,0,0,0,0,0,0,0,0,2,2
875533000000,13120,875533000000,wamv2/gps_wamv_link,0,0,-33.7241937092,150.673705187,-0.152411597203,0,0,0,0,0,0,0,0,0,2,2
875600000000,13121,875600000000,wamv2/gps_wamv_link,0,0,-33.7241938174,150.673705235,-0.153848720125,0,0,0,0,0,0,0,0,0,2,2
875667000000,13122,875667000000,wamv2/gps_wamv_link,0,0,-33.7241939294,150.673705278,-0.1555082962,0,0,0,0,0,0,0,0,0,2,2
875733000000,13123,875733000000,wamv2/gps_wamv_link,0,0,-33.7241940426,150.673705317,-0.157317476025,0,0,0,0,0,0,0,0,0,2,2
875800000000,13124,875800000000,wamv2/gps_wamv_link,0,0,-33.7241941587,150.673705356,-0.159162598301,0,0,0,0,0,0,0,0,0,2,2
875867000000,13125,875867000000,wamv2/gps_wamv_link,0,0,-33.7241942735,150.673705397,-0.160746368505,0,0,0,0,0,0,0,0,0,2,2
875933000000,13126,875933000000,wamv2/gps_wamv_link,0,0,-33.7241943832,150.673705441,-0.161775919471,0,0,0,0,0,0,0,0,0,2,2
876000000000,13127,876000000000,wamv2/gps_wamv_link,0,0,-33.7241944898,150.673705488,-0.162100133878,0,0,0,0,0,0,0,0,0,2,2
876067000000,13128,876067000000,wamv2/gps_wamv_link,0,0,-33.7241945921,150.673705535,-0.16167419807,0,0,0,0,0,0,0,0,0,2,2
876133000000,13129,876133000000,wamv2/gps_wamv_link,0,0,-33.7241946907,150.673705581,-0.16063713164,0,0,0,0,0,0,0,0,0,2,2
876200000000,13130,876200000000,wamv2/gps_wamv_link,0,0,-33.7241947918,150.673705626,-0.159147095178,0,0,0,0,0,0,0,0,0,2,2
876267000000,13131,876267000000,wamv2/gps_wamv_link,0,0,-33.7241948966,150.673705668,-0.157407313428,0,0,0,0,0,0,0,0,0,2,2
876333000000,13132,876333000000,wamv2/gps_wamv_link,0,0,-33.7241950047,150.673705708,-0.155588502039,0,0,0,0,0,0,0,0,0,2,2
876400000000,13133,876400000000,wamv2/gps_wamv_link,0,0,-33.7241951184,150.673705746,-0.153692682241,0,0,0,0,0,0,0,0,0,2,2
876467000000,13134,876467000000,wamv2/gps_wamv_link,0,0,-33.7241952337,150.673705783,-0.151688434952,0,0,0,0,0,0,0,0,0,2,2
876533000000,13135,876533000000,wamv2/gps_wamv_link,0,0,-33.7241953457,150.673705819,-0.149439567077,0,0,0,0,0,0,0,0,0,2,2
876600000000,13136,876600000000,wamv2/gps_wamv_link,0,0,-33.7241954554,150.673705857,-0.146658790019,0,0,0,0,0,0,0,0,0,2,2
876667000000,13137,876667000000,wamv2/gps_wamv_link,0,0,-33.7241955599,150.673705897,-0.143216587652,0,0,0,0,0,0,0,0,0,2,2
876733000000,13138,876733000000,wamv2/gps_wamv_link,0,0,-33.7241956585,150.673705942,-0.139166610575,0,0,0,0,0,0,0,0,0,2,2
876800000000,13139,876800000000,wamv2/gps_wamv_link,0,0,-33.7241957559,150.67370599,-0.134532016422,0,0,0,0,0,0,0,0,0,2,2
876867000000,13140,876867000000,wamv2/gps_wamv_link,0,0,-33.724195853,150.67370604,-0.129618378078,0,0,0,0,0,0,0,0,0,2,2
876933000000,13141,876933000000,wamv2/gps_wamv_link,0,0,-33.7241959503,150.673706089,-0.124767748513,0,0,0,0,0,0,0,0,0,2,2
877000000000,13142,877000000000,wamv2/gps_wamv_link,0,0,-33.724196052,150.673706134,-0.120060456169,0,0,0,0,0,0,0,0,0,2,2
877067000000,13143,877067000000,wamv2/gps_wamv_link,0,0,-33.7241961568,150.673706177,-0.11572598929,0,0,0,0,0,0,0,0,0,2,2
877133000000,13144,877133000000,wamv2/gps_wamv_link,0,0,-33.7241962624,150.673706216,-0.111871238599,0,0,0,0,0,0,0,0,0,2,2
877200000000,13145,877200000000,wamv2/gps_wamv_link,0,0,-33.7241963702,150.673706256,-0.108310951237,0,0,0,0,0,0,0,0,0,2,2
877267000000,13146,877267000000,wamv2/gps_wamv_link,0,0,-33.7241964762,150.673706299,-0.104942183457,0,0,0,0,0,0,0,0,0,2,2
877333000000,13147,877333000000,wamv2/gps_wamv_link,0,0,-33.7241965772,150.673706345,-0.101637117235,0,0,0,0,0,0,0,0,0,2,2
877400000000,13148,877400000000,wamv2/gps_wamv_link,0,0,-33.7241966751,150.673706394,-0.0982015724817,0,0,0,0,0,0,0,0,0,2,2
877467000000,13149,877467000000,wamv2/gps_wamv_link,0,0,-33.724196769,150.673706445,-0.0947237697738,0,0,0,0,0,0,0,0,0,2,2
877533000000,13150,877533000000,wamv2/gps_wamv_link,0,0,-33.7241968595,150.673706495,-0.0914025156822,0,0,0,0,0,0,0,0,0,2,2
877600000000,13151,877600000000,wamv2/gps_wamv_link,0,0,-33.7241969522,150.673706545,-0.0883296247013,0,0,0,0,0,0,0,0,0,2,2
877667000000,13152,877667000000,wamv2/gps_wamv_link,0,0,-33.7241970483,150.673706592,-0.0857340485364,0,0,0,0,0,0,0,0,0,2,2
877733000000,13153,877733000000,wamv2/gps_wamv_link,0,0,-33.7241971475,150.673706636,-0.0837625780904,0,0,0,0,0,0,0,0,0,2,2
877800000000,13154,877800000000,wamv2/gps_wamv_link,0,0,-33.7241972523,150.673706677,-0.0823936415808,0,0,0,0,0,0,0,0,0,2,2
877867000000,13155,877867000000,wamv2/gps_wamv_link,0,0,-33.7241973591,150.673706716,-0.0815893530753,0,0,0,0,0,0,0,0,0,2,2
877933000000,13156,877933000000,wamv2/gps_wamv_link,0,0,-33.7241974636,150.673706753,-0.0811651891286,0,0,0,0,0,0,0,0,0,2,2
878000000000,13157,878000000000,wamv2/gps_wamv_link,0,0,-33.7241975669,150.673706792,-0.0808558172617,0,0,0,0,0,0,0,0,0,2,2
878067000000,13158,878067000000,wamv2/gps_wamv_link,0,0,-33.7241976661,150.673706832,-0.0804451194078,0,0,0,0,0,0,0,0,0,2,2
878133000000,13159,878133000000,wamv2/gps_wamv_link,0,0,-33.7241977601,150.673706875,-0.0798400064669,0,0,0,0,0,0,0,0,0,2,2
878200000000,13160,878200000000,wamv2/gps_wamv_link,0,0,-33.7241978532,150.67370692,-0.0790649231419,0,0,0,0,0,0,0,0,0,2,2
878267000000,13161,878267000000,wamv2/gps_wamv_link,0,0,-33.724197946,150.673706965,-0.07827772119,0,0,0,0,0,0,0,0,0,2,2
878333000000,13162,878333000000,wamv2/gps_wamv_link,0,0,-33.7241980391,150.673707008,-0.0776740559032,0,0,0,0,0,0,0,0,0,2,2
878400000000,13163,878400000000,wamv2/gps_wamv_link,0,0,-33.7241981368,150.673707047,-0.0774018032702,0,0,0,0,0,0,0,0,0,2,2
878467000000,13164,878467000000,wamv2/gps_wamv_link,0,0,-33.724198238,150.673707084,-0.0775782349279,0,0,0,0,0,0,0,0,0,2,2
878533000000,13165,878533000000,wamv2/gps_wamv_link,0,0,-33.7241983404,150.673707118,-0.0782000571484,0,0,0,0,0,0,0,0,0,2,2
878600000000,13166,878600000000,wamv2/gps_wamv_link,0,0,-33.724198445,150.673707152,-0.0791806313421,0,0,0,0,0,0,0,0,0,2,2
878667000000,13167,878667000000,wamv2/gps_wamv_link,0,0,-33.724198548,150.673707189,-0.0803159904177,0,0,0,0,0,0,0,0,0,2,2
878733000000,13168,878733000000,wamv2/gps_wamv_link,0,0,-33.7241986455,150.673707228,-0.0813829378812,0,0,0,0,0,0,0,0,0,2,2
878800000000,13169,878800000000,wamv2/gps_wamv_link,0,0,-33.7241987397,150.67370727,-0.0822968624428,0,0,0,0,0,0,0,0,0,2,2
878867000000,13170,878867000000,wamv2/gps_wamv_link,0,0,-33.7241988295,150.673707315,-0.0830695420604,0,0,0,0,0,0,0,0,0,2,2
878933000000,13171,878933000000,wamv2/gps_wamv_link,0,0,-33.7241989157,150.67370736,-0.0838468736519,0,0,0,0,0,0,0,0,0,2,2
879000000000,13172,879000000000,wamv2/gps_wamv_link,0,0,-33.7241990035,150.673707406,-0.084867647788,0,0,0,0,0,0,0,0,0,2,2
879067000000,13173,879067000000,wamv2/gps_wamv_link,0,0,-33.7241990941,150.67370745,-0.0863254566394,0,0,0,0,0,0,0,0,0,2,2
879133000000,13174,879133000000,wamv2/gps_wamv_link,0,0,-33.7241991869,150.673707493,-0.0883298623566,0,0,0,0,0,0,0,0,0,2,2
879200000000,13175,879200000000,wamv2/gps_wamv_link,0,0,-33.7241992844,150.673707533,-0.090997952421,0,0,0,0,0,0,0,0,0,2,2
879267000000,13176,879267000000,wamv2/gps_wamv_link,0,0,-33.7241993832,150.673707571,-0.0942529815779,0,0,0,0,0,0,0,0,0,2,2
879333000000,13177,879333000000,wamv2/gps_wamv_link,0,0,-33.7241994796,150.673707608,-0.0978787234653,0,0,0,0,0,0,0,0,0,2,2
879400000000,13178,879400000000,wamv2/gps_wamv_link,0,0,-33.7241995745,150.673707646,-0.101765896538,0,0,0,0,0,0,0,0,0,2,2
879467000000,13179,879467000000,wamv2/gps_wamv_link,0,0,-33.7241996657,150.673707687,-0.10566116078,0,0,0,0,0,0,0,0,0,2,2
879533000000,13180,879533000000,wamv2/gps_wamv_link,0,0,-33.7241997519,150.673707729,-0.10940613238,0,0,0,0,0,0,0,0,0,2,2
879600000000,13181,879600000000,wamv2/gps_wamv_link,0,0,-33.7241998372,150.673707775,-0.113132365162,0,0,0,0,0,0,0,0,0,2,2
879667000000,13182,879667000000,wamv2/gps_wamv_link,0,0,-33.7241999219,150.673707819,-0.116882624087,0,0,0,0,0,0,0,0,0,2,2
879733000000,13183,879733000000,wamv2/gps_wamv_link,0,0,-33.7242000069,150.67370786,-0.120717216405,0,0,0,0,0,0,0,0,0,2,2
879800000000,13184,879800000000,wamv2/gps_wamv_link,0,0,-33.7242000961,150.673707898,-0.124842526562,0,0,0,0,0,0,0,0,0,2,2
879867000000,13185,879867000000,wamv2/gps_wamv_link,0,0,-33.7242001891,150.673707931,-0.129234863006,0,0,0,0,0,0,0,0,0,2,2
879933000000,13186,879933000000,wamv2/gps_wamv_link,0,0,-33.7242002838,150.673707961,-0.133772949932,0,0,0,0,0,0,0,0,0,2,2
880000000000,13187,880000000000,wamv2/gps_wamv_link,0,0,-33.7242003815,150.67370799,-0.138442054191,0,0,0,0,0,0,0,0,0,2,2
880067000000,13188,880067000000,wamv2/gps_wamv_link,0,0,-33.7242004785,150.67370802,-0.142933137636,0,0,0,0,0,0,0,0,0,2,2
880133000000,13189,880133000000,wamv2/gps_wamv_link,0,0,-33.724200571,150.673708051,-0.146925815283,0,0,0,0,0,0,0,0,0,2,2
880200000000,13190,880200000000,wamv2/gps_wamv_link,0,0,-33.7242006607,150.673708083,-0.150347365781,0,0,0,0,0,0,0,0,0,2,2
880267000000,13191,880267000000,wamv2/gps_wamv_link,0,0,-33.7242007464,150.673708117,-0.15306955127,0,0,0,0,0,0,0,0,0,2,2
880333000000,13192,880333000000,wamv2/gps_wamv_link,0,0,-33.7242008286,150.673708149,-0.155135170315,0,0,0,0,0,0,0,0,0,2,2
880400000000,13193,880400000000,wamv2/gps_wamv_link,0,0,-33.7242009124,150.673708182,-0.156755114544,0,0,0,0,0,0,0,0,0,2,2
880467000000,13194,880467000000,wamv2/gps_wamv_link,0,0,-33.7242009988,150.673708213,-0.158058253147,0,0,0,0,0,0,0,0,0,2,2
880533000000,13195,880533000000,wamv2/gps_wamv_link,0,0,-33.7242010877,150.673708243,-0.159158537123,0,0,0,0,0,0,0,0,0,2,2
880600000000,13196,880600000000,wamv2/gps_wamv_link,0,0,-33.7242011811,150.673708271,-0.160150102858,0,0,0,0,0,0,0,0,0,2,2
880667000000,13197,880667000000,wamv2/gps_wamv_link,0,0,-33.7242012759,150.673708298,-0.16098485214,0,0,0,0,0,0,0,0,0,2,2
880733000000,13198,880733000000,wamv2/gps_wamv_link,0,0,-33.7242013684,150.673708323,-0.161534411342,0,0,0,0,0,0,0,0,0,2,2
880800000000,13199,880800000000,wamv2/gps_wamv_link,0,0,-33.7242014593,150.67370835,-0.161645635596,0,0,0,0,0,0,0,0,0,2,2
880867000000,13200,880867000000,wamv2/gps_wamv_link,0,0,-33.7242015461,150.67370838,-0.1611658556,0,0,0,0,0,0,0,0,0,2,2
880933000000,13201,880933000000,wamv2/gps_wamv_link,0,0,-33.7242016279,150.673708413,-0.160078360697,0,0,0,0,0,0,0,0,0,2,2
881000000000,13202,881000000000,wamv2/gps_wamv_link,0,0,-33.7242017081,150.67370845,-0.15843936064,0,0,0,0,0,0,0,0,0,2,2
881067000000,13203,881067000000,wamv2/gps_wamv_link,0,0,-33.7242017873,150.673708487,-0.156444161983,0,0,0,0,0,0,0,0,0,2,2
881133000000,13204,881133000000,wamv2/gps_wamv_link,0,0,-33.7242018663,150.673708523,-0.154337737527,0,0,0,0,0,0,0,0,0,2,2
881200000000,13205,881200000000,wamv2/gps_wamv_link,0,0,-33.7242019489,150.673708557,-0.152240668507,0,0,0,0,0,0,0,0,0,2,2
881267000000,13206,881267000000,wamv2/gps_wamv_link,0,0,-33.7242020334,150.673708586,-0.150308992703,0,0,0,0,0,0,0,0,0,2,2
881333000000,13207,881333000000,wamv2/gps_wamv_link,0,0,-33.7242021091,150.673708591,-0.148598501223,0,0,0,0,0,0,0,0,0,2,2
881400000000,13208,881400000000,wamv2/gps_wamv_link,0,0,-33.7242021805,150.67370858,-0.146995980658,0,0,0,0,0,0,0,0,0,2,2
881467000000,13209,881467000000,wamv2/gps_wamv_link,0,0,-33.7242022528,150.673708575,-0.145388640116,0,0,0,0,0,0,0,0,0,2,2
881533000000,13210,881533000000,wamv2/gps_wamv_link,0,0,-33.7242023226,150.673708574,-0.143632369731,0,0,0,0,0,0,0,0,0,2,2
881600000000,13211,881600000000,wamv2/gps_wamv_link,0,0,-33.7242023897,150.673708574,-0.141546752112,0,0,0,0,0,0,0,0,0,2,2
881667000000,13212,881667000000,wamv2/gps_wamv_link,0,0,-33.724202452,150.673708573,-0.13912039002,0,0,0,0,0,0,0,0,0,2,2
881733000000,13213,881733000000,wamv2/gps_wamv_link,0,0,-33.7242025104,150.673708569,-0.136459280368,0,0,0,0,0,0,0,0,0,2,2
881800000000,13214,881800000000,wamv2/gps_wamv_link,0,0,-33.7242025646,150.673708553,-0.133606563824,0,0,0,0,0,0,0,0,0,2,2
881867000000,13215,881867000000,wamv2/gps_wamv_link,0,0,-33.7242026112,150.673708512,-0.130731186795,0,0,0,0,0,0,0,0,0,2,2
881933000000,13216,881933000000,wamv2/gps_wamv_link,0,0,-33.7242026621,150.673708472,-0.127991651986,0,0,0,0,0,0,0,0,0,2,2
882000000000,13217,882000000000,wamv2/gps_wamv_link,0,0,-33.7242027205,150.673708436,-0.125369507335,0,0,0,0,0,0,0,0,0,2,2
882067000000,13218,882067000000,wamv2/gps_wamv_link,0,0,-33.7242027818,150.673708398,-0.12288065454,0,0,0,0,0,0,0,0,0,2,2
882133000000,13219,882133000000,wamv2/gps_wamv_link,0,0,-33.7242028403,150.673708356,-0.120426487226,0,0,0,0,0,0,0,0,0,2,2
882200000000,13220,882200000000,wamv2/gps_wamv_link,0,0,-33.7242028898,150.673708298,-0.117738593675,0,0,0,0,0,0,0,0,0,2,2
882267000000,13221,882267000000,wamv2/gps_wamv_link,0,0,-33.7242029221,150.673708213,-0.114673942707,0,0,0,0,0,0,0,0,0,2,2
882333000000,13222,882333000000,wamv2/gps_wamv_link,0,0,-33.7242029406,150.673708113,-0.111188732399,0,0,0,0,0,0,0,0,0,2,2
882400000000,13223,882400000000,wamv2/gps_wamv_link,0,0,-33.724202955,150.67370801,-0.107219741476,0,0,0,0,0,0,0,0,0,2,2
882467000000,13224,882467000000,wamv2/gps_wamv_link,0,0,-33.724202974,150.673707918,-0.103001669107,0,0,0,0,0,0,0,0,0,2,2
882533000000,13225,882533000000,wamv2/gps_wamv_link,0,0,-33.7242029945,150.673707828,-0.0988158936233,0,0,0,0,0,0,0,0,0,2,2
882600000000,13226,882600000000,wamv2/gps_wamv_link,0,0,-33.7242030139,150.673707728,-0.094724229162,0,0,0,0,0,0,0,0,0,2,2
882667000000,13227,882667000000,wamv2/gps_wamv_link,0,0,-33.7242030301,150.673707613,-0.0909443918527,0,0,0,0,0,0,0,0,0,2,2
882733000000,13228,882733000000,wamv2/gps_wamv_link,0,0,-33.7242030354,150.673707476,-0.0876062750053,0,0,0,0,0,0,0,0,0,2,2
882800000000,13229,882800000000,wamv2/gps_wamv_link,0,0,-33.7242030319,150.673707319,-0.0845598735963,0,0,0,0,0,0,0,0,0,2,2
882867000000,13230,882867000000,wamv2/gps_wamv_link,0,0,-33.7242030218,150.673707154,-0.0817244772465,0,0,0,0,0,0,0,0,0,2,2
882933000000,13231,882933000000,wamv2/gps_wamv_link,0,0,-33.7242030033,150.673706985,-0.0790562594612,0,0,0,0,0,0,0,0,0,2,2
883000000000,13232,883000000000,wamv2/gps_wamv_link,0,0,-33.7242029697,150.673706797,-0.076488554304,0,0,0,0,0,0,0,0,0,2,2
883067000000,13233,883067000000,wamv2/gps_wamv_link,0,0,-33.7242029158,150.673706583,-0.0741298151404,0,0,0,0,0,0,0,0,0,2,2
883133000000,13234,883133000000,wamv2/gps_wamv_link,0,0,-33.7242028422,150.673706343,-0.0721097248647,0,0,0,0,0,0,0,0,0,2,2
883200000000,13235,883200000000,wamv2/gps_wamv_link,0,0,-33.7242027523,150.673706076,-0.0704858802502,0,0,0,0,0,0,0,0,0,2,2
883267000000,13236,883267000000,wamv2/gps_wamv_link,0,0,-33.7242026555,150.673705794,-0.0693960000072,0,0,0,0,0,0,0,0,0,2,2
883333000000,13237,883333000000,wamv2/gps_wamv_link,0,0,-33.7242025586,150.673705508,-0.0689587727982,0,0,0,0,0,0,0,0,0,2,2
883400000000,13238,883400000000,wamv2/gps_wamv_link,0,0,-33.7242024575,150.673705207,-0.0693197060119,0,0,0,0,0,0,0,0,0,2,2
883467000000,13239,883467000000,wamv2/gps_wamv_link,0,0,-33.7242023467,150.673704886,-0.070590109522,0,0,0,0,0,0,0,0,0,2,2
883533000000,13240,883533000000,wamv2/gps_wamv_link,0,0,-33.7242022204,150.673704546,-0.0726368634599,0,0,0,0,0,0,0,0,0,2,2
883600000000,13241,883600000000,wamv2/gps_wamv_link,0,0,-33.7242020714,150.673704177,-0.0752472959449,0,0,0,0,0,0,0,0,0,2,2
883667000000,13242,883667000000,wamv2/gps_wamv_link,0,0,-33.7242019049,150.673703791,-0.0780535920126,0,0,0,0,0,0,0,0,0,2,2
883733000000,13243,883733000000,wamv2/gps_wamv_link,0,0,-33.7242017305,150.673703404,-0.0807372140234,0,0,0,0,0,0,0,0,0,2,2
883800000000,13244,883800000000,wamv2/gps_wamv_link,0,0,-33.7242015486,150.67370301,-0.0832973080352,0,0,0,0,0,0,0,0,0,2,2
883867000000,13245,883867000000,wamv2/gps_wamv_link,0,0,-33.7242013619,150.673702611,-0.0858497280344,0,0,0,0,0,0,0,0,0,2,2
883933000000,13246,883933000000,wamv2/gps_wamv_link,0,0,-33.7242011687,150.673702204,-0.0886084066088,0,0,0,0,0,0,0,0,0,2,2
884000000000,13247,884000000000,wamv2/gps_wamv_link,0,0,-33.7242009574,150.67370177,-0.0918274995375,0,0,0,0,0,0,0,0,0,2,2
884067000000,13248,884067000000,wamv2/gps_wamv_link,0,0,-33.7242007289,150.673701312,-0.0954860760499,0,0,0,0,0,0,0,0,0,2,2
884133000000,13249,884133000000,wamv2/gps_wamv_link,0,0,-33.7242004912,150.673700846,-0.0993913345922,0,0,0,0,0,0,0,0,0,2,2
884200000000,13250,884200000000,wamv2/gps_wamv_link,0,0,-33.7242002436,150.673700368,-0.103417503146,0,0,0,0,0,0,0,0,0,2,2
884267000000,13251,884267000000,wamv2/gps_wamv_link,0,0,-33.7241999932,150.673699891,-0.107260455978,0,0,0,0,0,0,0,0,0,2,2
884333000000,13252,884333000000,wamv2/gps_wamv_link,0,0,-33.7241997409,150.673699424,-0.110745584186,0,0,0,0,0,0,0,0,0,2,2
884400000000,13253,884400000000,wamv2/gps_wamv_link,0,0,-33.7241994714,150.673698946,-0.113976402398,0,0,0,0,0,0,0,0,0,2,2
884467000000,13254,884467000000,wamv2/gps_wamv_link,0,0,-33.7241991815,150.673698461,-0.116956670379,0,0,0,0,0,0,0,0,0,2,2
884533000000,13255,884533000000,wamv2/gps_wamv_link,0,0,-33.724198876,150.673697974,-0.119736623289,0,0,0,0,0,0,0,0,0,2,2
884600000000,13256,884600000000,wamv2/gps_wamv_link,0,0,-33.7241985527,150.673697475,-0.122491215563,0,0,0,0,0,0,0,0,0,2,2
884667000000,13257,884667000000,wamv2/gps_wamv_link,0,0,-33.7241982257,150.673696976,-0.125240384328,0,0,0,0,0,0,0,0,0,2,2
884733000000,13258,884733000000,wamv2/gps_wamv_link,0,0,-33.724197905,150.673696486,-0.128017755921,0,0,0,0,0,0,0,0,0,2,2
884800000000,13259,884800000000,wamv2/gps_wamv_link,0,0,-33.7241975785,150.673695988,-0.131024454481,0,0,0,0,0,0,0,0,0,2,2
884867000000,13260,884867000000,wamv2/gps_wamv_link,0,0,-33.7241972432,150.673695487,-0.134289166877,0,0,0,0,0,0,0,0,0,2,2
884933000000,13261,884933000000,wamv2/gps_wamv_link,0,0,-33.7241968967,150.673694988,-0.137685043881,0,0,0,0,0,0,0,0,0,2,2
885000000000,13262,885000000000,wamv2/gps_wamv_link,0,0,-33.7241965269,150.673694478,-0.141124995563,0,0,0,0,0,0,0,0,0,2,2
885067000000,13263,885067000000,wamv2/gps_wamv_link,0,0,-33.7241961458,150.673693972,-0.144334975714,0,0,0,0,0,0,0,0,0,2,2
885133000000,13264,885133000000,wamv2/gps_wamv_link,0,0,-33.7241957781,150.673693487,-0.147114532783,0,0,0,0,0,0,0,0,0,2,2
885200000000,13265,885200000000,wamv2/gps_wamv_link,0,0,-33.7241954196,150.673693011,-0.149539837357,0,0,0,0,0,0,0,0,0,2,2
885267000000,13266,885267000000,wamv2/gps_wamv_link,0,0,-33.7241950729,150.673692545,-0.151703499747,0,0,0,0,0,0,0,0,0,2,2
885333000000,13267,885333000000,wamv2/gps_wamv_link,0,0,-33.7241947349,150.673692091,-0.1537359046,0,0,0,0,0,0,0,0,0,2,2
885400000000,13268,885400000000,wamv2/gps_wamv_link,0,0,-33.7241943891,150.673691629,-0.155783255205,0,0,0,0,0,0,0,0,0,2,2
885467000000,13269,885467000000,wamv2/gps_wamv_link,0,0,-33.7241940402,150.673691167,-0.157819168182,0,0,0,0,0,0,0,0,0,2,2
885533000000,13270,885533000000,wamv2/gps_wamv_link,0,0,-33.7241936898,150.67369071,-0.159735474851,0,0,0,0,0,0,0,0,0,2,2
885600000000,13271,885600000000,wamv2/gps_wamv_link,0,0,-33.7241933341,150.67369025,-0.161413490034,0,0,0,0,0,0,0,0,0,2,2
885667000000,13272,885667000000,wamv2/gps_wamv_link,0,0,-33.7241929825,150.673689798,-0.162634658712,0,0,0,0,0,0,0,0,0,2,2
885733000000,13273,885733000000,wamv2/gps_wamv_link,0,0,-33.7241926359,150.673689359,-0.163276629107,0,0,0,0,0,0,0,0,0,2,2
885800000000,13274,885800000000,wamv2/gps_wamv_link,0,0,-33.7241922743,150.673688921,-0.163296494521,0,0,0,0,0,0,0,0,0,2,2
885867000000,13275,885867000000,wamv2/gps_wamv_link,0,0,-33.7241918971,150.673688489,-0.162640982278,0,0,0,0,0,0,0,0,0,2,2
885933000000,13276,885933000000,wamv2/gps_wamv_link,0,0,-33.7241915216,150.673688069,-0.161335660236,0,0,0,0,0,0,0,0,0,2,2
886000000000,13277,886000000000,wamv2/gps_wamv_link,0,0,-33.7241911463,150.673687652,-0.159401139383,0,0,0,0,0,0,0,0,0,2,2
886067000000,13278,886067000000,wamv2/gps_wamv_link,0,0,-33.7241907854,150.673687242,-0.156949207666,0,0,0,0,0,0,0,0,0,2,2
886133000000,13279,886133000000,wamv2/gps_wamv_link,0,0,-33.724190447,150.673686844,-0.154161132689,0,0,0,0,0,0,0,0,0,2,2
886200000000,13280,886200000000,wamv2/gps_wamv_link,0,0,-33.7241901112,150.673686446,-0.151106106113,0,0,0,0,0,0,0,0,0,2,2
886267000000,13281,886267000000,wamv2/gps_wamv_link,0,0,-33.7241897672,150.67368605,-0.147918290759,0,0,0,0,0,0,0,0,0,2,2
886333000000,13282,886333000000,wamv2/gps_wamv_link,0,0,-33.7241894155,150.673685666,-0.144628694232,0,0,0,0,0,0,0,0,0,2,2
886400000000,13283,886400000000,wamv2/gps_wamv_link,0,0,-33.7241890472,150.673685283,-0.141035846045,0,0,0,0,0,0,0,0,0,2,2
